% program   : RTKPOST ver.2.4.3 b34
% inp file  : C:\Users\abdal\OneDrive\Documents\UA_REU\Positioning\Field.23O
% inp file  : C:\Users\abdal\OneDrive\Documents\UA_REU\Positioning\Field.23N
% obs start : 2023/05/25 19:43:15.0 GPST (week2263 416595.0s)
% obs end   : 2023/05/25 20:52:10.0 GPST (week2263 420730.0s)
% pos mode  : Single
% elev mask : 15.0 deg
% ionos opt : Broadcast
% tropo opt : Saastamoinen
% ephemeris : Broadcast
% navi sys  : GPS
%
% (lat/lon/height=WGS84/ellipsoidal,Q=1:fix,2:float,3:sbas,4:dgps,5:single,6:ppp,ns=# of satellites)
%  GPST                  latitude(deg) longitude(deg)  height(m)   Q  ns   sdn(m)   sde(m)   sdu(m)  sdne(m)  sdeu(m)  sdun(m) age(s)  ratio
2023/05/25 19:43:15.000   33.215906531  -87.531603412    34.8268   5   7   6.1812   4.8365  11.2092  -3.4495  -4.1240   6.3391   0.00    0.0
2023/05/25 19:43:16.000   33.215919671  -87.531592634    33.9349   5   5  12.7898   5.0071  13.4980  -3.7104  -4.3421  11.1456   0.00    0.0
2023/05/25 19:43:17.000   33.215943891  -87.531586815    34.7497   5   5  12.7920   5.0067  13.4975  -3.7108  -4.3417  11.1461   0.00    0.0
2023/05/25 19:43:18.000   33.215961116  -87.531574082    35.0071   5   7   5.2150   4.0969   8.7115   1.3222   2.0986   3.7835   0.00    0.0
2023/05/25 19:43:19.000   33.215968857  -87.531555330    34.8705   5   7   5.2155   4.0969   8.7112   1.3222   2.0990   3.7835   0.00    0.0
2023/05/25 19:43:20.000   33.215990223  -87.531513339    35.4414   5   6   6.3640   4.4303  10.5198  -2.0350   4.1191   1.4074   0.00    0.0
2023/05/25 19:43:21.000   33.216005718  -87.531457744    35.1808   5   6   6.3641   4.4304  10.5190  -2.0368   4.1189   1.4001   0.00    0.0
2023/05/25 19:43:22.000   33.216021870  -87.531394897    34.6416   5   7   5.2157   4.4279  10.5107  -2.1697   4.1260   1.8436   0.00    0.0
2023/05/25 19:43:23.000   33.216047550  -87.531322251    34.4815   5   7   5.2162   4.4280  10.5098  -2.1707   4.1258   1.8415   0.00    0.0
2023/05/25 19:43:24.000   33.216069485  -87.531245699    34.6543   5   7   5.2167   4.4281  10.5089  -2.1717   4.1257   1.8394   0.00    0.0
2023/05/25 19:43:25.000   33.216080803  -87.531159509    36.3208   5   8   4.9152   3.8258   8.7020  -0.9056   1.9709   3.6984   0.00    0.0
2023/05/25 19:43:26.000   33.216117956  -87.531079056    36.0090   5   8   4.9153   3.8258   8.7016  -0.9065   1.9709   3.6980   0.00    0.0
2023/05/25 19:43:27.000   33.216150605  -87.530995939    35.2932   5   8   4.9154   3.8258   8.7013  -0.9074   1.9708   3.6976   0.00    0.0
2023/05/25 19:43:28.000   33.216170934  -87.530907486    35.0455   5   8   4.9155   3.8258   8.7009  -0.9082   1.9707   3.6972   0.00    0.0
2023/05/25 19:43:29.000   33.216200491  -87.530819001    34.7705   5   8   4.9156   3.8258   8.7006  -0.9091   1.9706   3.6967   0.00    0.0
2023/05/25 19:43:30.000   33.216238494  -87.530732304    34.5824   5   8   4.9157   3.8258   8.7002  -0.9100   1.9705   3.6963   0.00    0.0
2023/05/25 19:43:31.000   33.216270595  -87.530651290    34.0365   5   8   4.9158   3.8258   8.6999  -0.9108   1.9704   3.6959   0.00    0.0
2023/05/25 19:43:32.000   33.216301125  -87.530566609    34.3761   5   8   4.9159   3.8258   8.6996  -0.9117   1.9704   3.6955   0.00    0.0
2023/05/25 19:43:33.000   33.216333522  -87.530501900    32.9350   5   7   5.9664   3.8502   8.7056   0.7940   2.0065   3.8441   0.00    0.0
2023/05/25 19:43:34.000   33.216348686  -87.530443843    33.1643   5   6   6.3657   4.4315  10.5094  -2.0602   4.1162   1.3007   0.00    0.0
2023/05/25 19:43:35.000   33.216363062  -87.530394109    33.0375   5   5   7.6804   8.2918  15.8879  -5.8624  10.0226  -7.0381   0.00    0.0
2023/05/25 19:43:38.000   33.216322821  -87.530314975    32.7648   5   5   9.5593   8.4145  15.9265  -6.6643   9.9377  -6.2685   0.00    0.0
2023/05/25 19:43:39.000   33.216273331  -87.530295456    35.4422   5   4  20.8822   9.1044  24.1333 -10.4367  12.7181 -19.3902   0.00    0.0
2023/05/25 19:43:40.000   33.216250701  -87.530293698    34.7595   5   5   7.6128   8.3128  18.8746  -6.0579  10.2903  -9.1426   0.00    0.0
2023/05/25 19:43:41.000   33.216239561  -87.530304644    32.0327   5   6   6.7599   8.2974  15.8742  -5.9064  10.0280  -6.9166   0.00    0.0
2023/05/25 19:43:42.000   33.216213569  -87.530315398    33.7500   5   6   5.5042   4.8731  11.7348  -1.1338   2.5159  -2.4180   0.00    0.0
2023/05/25 19:43:43.000   33.216188581  -87.530323026    35.2302   5   6   6.4488   5.3310  12.6383  -4.0007  -1.9745   5.4641   0.00    0.0
2023/05/25 19:43:44.000   33.216172991  -87.530363487    33.4800   5   5   9.2855   5.3326  15.4512  -3.8980  -1.6763   9.4467   0.00    0.0
2023/05/25 19:43:45.000   33.216166724  -87.530412464    32.7189   5   6   8.9805   4.8434  14.6028  -3.1512  -3.7498  10.0561   0.00    0.0
2023/05/25 19:43:46.000   33.216151983  -87.530453427    33.0980   5   5   9.2871   5.3329  15.4451  -3.9005  -1.6787   9.4438   0.00    0.0
2023/05/25 19:43:47.000   33.216100431  -87.530502303    27.3576   5   6   6.4526   5.3317  12.6347  -4.0046  -1.9758   5.4633   0.00    0.0
2023/05/25 19:43:48.000   33.216113823  -87.530557900    32.6380   5   5   9.2887   5.3332  15.4389  -3.9029  -1.6811   9.4409   0.00    0.0
2023/05/25 19:43:49.000   33.216079802  -87.530615385    30.8721   5   6   6.4545   5.3320  12.6329  -4.0066  -1.9764   5.4628   0.00    0.0
2023/05/25 19:43:50.000   33.216092785  -87.530655778    32.8180   5   6   6.4554   5.3322  12.6320  -4.0075  -1.9767   5.4626   0.00    0.0
2023/05/25 19:43:51.000   33.216080668  -87.530705167    34.5623   5   6   6.4564   5.3324  12.6310  -4.0085  -1.9770   5.4624   0.00    0.0
2023/05/25 19:43:52.000   33.216055720  -87.530740651    32.0168   5   5   9.2920   5.3339  15.4266  -3.9078  -1.6859   9.4350   0.00    0.0
2023/05/25 19:43:53.000   33.216040133  -87.530780316    31.5674   5   6   8.9793   4.8427  14.5895  -3.1510  -3.7462  10.0481   0.00    0.0
2023/05/25 19:43:54.000   33.216057088  -87.530835497    37.2605   5   8   4.9182   3.8260   8.6920  -0.9304   1.9687   3.6864   0.00    0.0
2023/05/25 19:43:55.000   33.216030347  -87.530885960    35.7017   5   7   6.7101   4.0815  10.5210   2.3707   3.5074   6.3755   0.00    0.0
2023/05/25 19:43:56.000   33.216005967  -87.530929392    34.3767   5   7   6.2020   4.8317  11.2120  -3.4666  -4.1261   6.3517   0.00    0.0
2023/05/25 19:43:57.000   33.215984894  -87.530991568    34.4883   5   7   6.7095   4.0817  10.5181   2.3702   3.5068   6.3731   0.00    0.0
2023/05/25 19:43:58.000   33.215962291  -87.531047390    34.7325   5   7   6.7092   4.0817  10.5167   2.3699   3.5065   6.3718   0.00    0.0
2023/05/25 19:43:59.000   33.215933180  -87.531113191    33.6584   5   7   5.2335   4.4322  10.4781  -2.2076   4.1197   1.7630   0.00    0.0
2023/05/25 19:44:00.000   33.215916849  -87.531180244    33.4791   5   8   4.9188   3.8261   8.6900  -0.9355   1.9683   3.6839   0.00    0.0
2023/05/25 19:44:01.000   33.215918601  -87.531241537    37.3932   5   8   4.9189   3.8261   8.6896  -0.9363   1.9682   3.6835   0.00    0.0
2023/05/25 19:44:02.000   33.215886266  -87.531308578    35.6293   5   7   6.7080   4.0821  10.5108   2.3687   3.5054   6.3668   0.00    0.0
2023/05/25 19:44:03.000   33.215863625  -87.531361760    36.0367   5   7   6.7077   4.0822  10.5094   2.3684   3.5052   6.3656   0.00    0.0
2023/05/25 19:44:04.000   33.215843463  -87.531419807    35.7624   5   7   6.7074   4.0823  10.5079   2.3681   3.5049   6.3643   0.00    0.0
2023/05/25 19:44:05.000   33.215810076  -87.531465650    32.5511   5   6   8.9771   4.8417  14.5691  -3.1505  -3.7405  10.0356   0.00    0.0
2023/05/25 19:44:06.000   33.215800574  -87.531491568    29.4727   5   5   9.2609  16.5187  26.7976  -6.7726 -19.2149  12.3240   0.00    0.0
2023/05/25 19:44:07.000   33.215799030  -87.531542578    30.3169   5   6   8.3596  13.6163  26.2712  -9.1285 -17.8742  13.1685   0.00    0.0
2023/05/25 19:44:08.000   33.215826685  -87.531585798    34.3195   5   7   5.0477   4.6154   9.3196   1.4243  -2.1997   3.1198   0.00    0.0
2023/05/25 19:44:09.000   33.215830695  -87.531570505    30.3910   5   5  17.6262  21.3835  42.9017 -18.4178 -29.6433  26.4522   0.00    0.0
2023/05/25 19:44:10.000   33.215855453  -87.531570949    30.3374   5   5  17.6247  21.3813  42.8998 -18.4162 -29.6411  26.4503   0.00    0.0
2023/05/25 19:44:11.000   33.215890586  -87.531605678    35.0583   5   6   8.5623   4.9628  11.9615  -4.3340  -4.6670   8.0596   0.00    0.0
2023/05/25 19:44:12.000   33.215904900  -87.531610669    33.8861   5   7   6.2099   4.8298  11.2126  -3.4730  -4.1266   6.3561   0.00    0.0
2023/05/25 19:44:13.000   33.215909573  -87.531621659    32.8858   5   6   8.5595   4.9623  11.9582  -4.3332  -4.6653   8.0552   0.00    0.0
2023/05/25 19:44:14.000   33.215922082  -87.531639692    33.2421   5   6   8.5582   4.9621  11.9565  -4.3328  -4.6645   8.0530   0.00    0.0
2023/05/25 19:44:15.000   33.215924099  -87.531649125    30.7618   5   7   6.2113   4.8295  11.2126  -3.4742  -4.1267   6.3568   0.00    0.0
2023/05/25 19:44:16.000   33.215925868  -87.531681656    31.6169   5   6   8.3962  13.6457  26.3705  -9.1743 -17.9345  13.2379   0.00    0.0
2023/05/25 19:44:17.000   33.215909430  -87.531709715    29.7366   5   6   8.4003  13.6490  26.3815  -9.1794 -17.9412  13.2456   0.00    0.0
2023/05/25 19:44:18.000   33.215907967  -87.531776747    36.5787   5   6   6.4820   5.3369  12.6061  -4.0347  -1.9852   5.4560   0.00    0.0
2023/05/25 19:44:19.000   33.215885824  -87.531813321    31.3879   5   6   8.9738   4.8405  14.5444  -3.1500  -3.7339  10.0202   0.00    0.0
2023/05/25 19:44:20.000   33.215876049  -87.531844397    31.2868   5   6   8.9736   4.8404  14.5426  -3.1499  -3.7334  10.0190   0.00    0.0
2023/05/25 19:44:21.000   33.215866011  -87.531864900    32.9480   5   6   8.9733   4.8403  14.5408  -3.1499  -3.7330  10.0179   0.00    0.0
2023/05/25 19:44:22.000   33.215858371  -87.531880475    31.6170   5   6   8.9731   4.8403  14.5390  -3.1499  -3.7325  10.0167   0.00    0.0
2023/05/25 19:44:23.000   33.215852965  -87.531878013    31.0381   5   6   8.9728   4.8402  14.5372  -3.1498  -3.7320  10.0156   0.00    0.0
2023/05/25 19:44:24.000   33.215854271  -87.531874656    29.7752   5   6   8.9725   4.8401  14.5353  -3.1498  -3.7315  10.0144   0.00    0.0
2023/05/25 19:44:25.000   33.215824370  -87.531884366    25.5731   5   7   6.2161   4.8283  11.2128  -3.4781  -4.1269   6.3593   0.00    0.0
2023/05/25 19:44:26.000   33.215849195  -87.531896262    31.2505   5   6   8.9720   4.8399  14.5317  -3.1497  -3.7306  10.0121   0.00    0.0
2023/05/25 19:44:27.000   33.215848633  -87.531902584    31.8791   5   6   8.9717   4.8398  14.5299  -3.1496  -3.7301  10.0110   0.00    0.0
2023/05/25 19:44:28.000   33.215876496  -87.531933692    37.6177   5   7   6.6995   4.0843  10.4727   2.3607   3.4978   6.3337   0.00    0.0
2023/05/25 19:44:29.000   33.215842011  -87.531928304    28.8339   5   5   9.2973  16.6293  27.1066  -6.9826 -19.4424  12.4916   0.00    0.0
2023/05/25 19:44:30.000   33.215918732  -87.531978900    40.3492   5   7   6.2184   4.8277  11.2128  -3.4801  -4.1270   6.3605   0.00    0.0
2023/05/25 19:44:31.000   33.215903308  -87.531990536    29.0356   5   6   8.4576  13.6948  26.5360  -9.2506 -18.0349  13.3536   0.00    0.0
2023/05/25 19:44:32.000   33.215964370  -87.532084853    36.5750   5   6   8.5334   4.9575  11.9263  -4.3252  -4.6493   8.0127   0.00    0.0
2023/05/25 19:44:33.000   33.216022039  -87.532120220    36.5469   5   6   8.5321   4.9572  11.9246  -4.3248  -4.6484   8.0104   0.00    0.0
2023/05/25 19:44:34.000   33.216080930  -87.532146524    34.5240   5   6   8.5307   4.9570  11.9229  -4.3243  -4.6476   8.0081   0.00    0.0
2023/05/25 19:44:35.000   33.216162975  -87.532194226    36.5145   5   7   5.9355   3.8486   8.6794   0.6610   1.9838   3.7468   0.00    0.0
2023/05/25 19:44:36.000   33.216215532  -87.532226367    33.4889   5   6   8.5279   4.9565  11.9196  -4.3235  -4.6458   8.0036   0.00    0.0
2023/05/25 19:44:37.000   33.216291004  -87.532277916    34.0306   5   6   8.5265   4.9562  11.9179  -4.3230  -4.6450   8.0014   0.00    0.0
2023/05/25 19:44:38.000   33.216363522  -87.532340551    34.8375   5   6   8.5251   4.9559  11.9162  -4.3226  -4.6441   7.9991   0.00    0.0
2023/05/25 19:44:39.000   33.216429143  -87.532412903    35.7636   5   6   8.5236   4.9557  11.9145  -4.3222  -4.6433   7.9968   0.00    0.0
2023/05/25 19:44:40.000   33.216469942  -87.532455767    30.1129   5   5  17.5663  21.2998  42.8179 -18.3542 -29.5554  26.3752   0.00    0.0
2023/05/25 19:44:41.000   33.216543396  -87.532560035    34.6586   5   6   8.4982  13.7272  26.6461  -9.3009 -18.1014  13.4301   0.00    0.0
2023/05/25 19:44:42.000   33.216589186  -87.532659311    36.3488   5   7   6.2238   4.8262  11.2126  -3.4846  -4.1270   6.3630   0.00    0.0
2023/05/25 19:44:43.000   33.216631074  -87.532755285    37.6422   5   6   5.5254   4.8725  11.7141  -1.2805   2.4934  -2.5139   0.00    0.0
2023/05/25 19:44:44.000   33.216667585  -87.532855130    37.4398   5   7   5.0452   4.6121   9.3221   1.3772  -2.2205   3.1080   0.00    0.0
2023/05/25 19:44:45.000   33.216695872  -87.532955923    37.4544   5   7   5.0451   4.6121   9.3222   1.3758  -2.2211   3.1077   0.00    0.0
2023/05/25 19:44:46.000   33.216724904  -87.533059750    37.3579   5   7   5.0450   4.6120   9.3223   1.3745  -2.2217   3.1074   0.00    0.0
2023/05/25 19:44:47.000   33.216753805  -87.533161588    36.9036   5   7   5.0450   4.6119   9.3224   1.3732  -2.2223   3.1070   0.00    0.0
2023/05/25 19:44:48.000   33.216795294  -87.533262268    36.9237   5   7   5.0449   4.6118   9.3224   1.3718  -2.2228   3.1067   0.00    0.0
2023/05/25 19:44:49.000   33.216830635  -87.533366644    37.2511   5   7   5.0448   4.6117   9.3225   1.3705  -2.2234   3.1064   0.00    0.0
2023/05/25 19:44:50.000   33.216875580  -87.533471112    37.5316   5   7   5.0447   4.6116   9.3226   1.3691  -2.2240   3.1060   0.00    0.0
2023/05/25 19:44:51.000   33.216924475  -87.533575469    37.8126   5   7   5.0447   4.6115   9.3226   1.3678  -2.2246   3.1057   0.00    0.0
2023/05/25 19:44:52.000   33.216974462  -87.533678359    38.1739   5   7   5.0446   4.6114   9.3227   1.3664  -2.2251   3.1054   0.00    0.0
2023/05/25 19:44:53.000   33.217027467  -87.533775676    38.0756   5   8   4.9238   3.8266   8.6712  -0.9796   1.9640   3.6603   0.00    0.0
2023/05/25 19:44:54.000   33.217084857  -87.533871184    37.3616   5   8   4.9238   3.8266   8.6708  -0.9804   1.9639   3.6598   0.00    0.0
2023/05/25 19:44:55.000   33.217149241  -87.533959089    36.4806   5   7   5.0444   4.6111   9.3229   1.3624  -2.2269   3.1043   0.00    0.0
2023/05/25 19:44:56.000   33.217219657  -87.534046891    36.4352   5   6   6.1515   4.6862   9.3334   2.1897  -2.3089   2.8420   0.00    0.0
2023/05/25 19:44:57.000   33.217267633  -87.534101446    30.6120   5   5  17.5224  21.2415  42.7477 -18.3069 -29.4893  26.3158   0.00    0.0
2023/05/25 19:44:58.000   33.217337191  -87.534179750    29.7609   5   5  17.5196  21.2378  42.7431 -18.3039 -29.4851  26.3120   0.00    0.0
2023/05/25 19:44:59.000   33.217430166  -87.534286682    34.9202   5   6   8.4956   4.9504  11.8811  -4.3133  -4.6260   7.9515   0.00    0.0
2023/05/25 19:45:00.000   33.217509833  -87.534362310    35.7067   5   6   8.4942   4.9502  11.8794  -4.3128  -4.6251   7.9492   0.00    0.0
2023/05/25 19:45:01.000   33.217589844  -87.534431890    35.5039   5   6   8.4927   4.9499  11.8777  -4.3124  -4.6243   7.9469   0.00    0.0
2023/05/25 19:45:02.000   33.217680261  -87.534507011    36.5398   5   7   5.9220   3.8479   8.6686   0.5939   1.9741   3.7037   0.00    0.0
2023/05/25 19:45:03.000   33.217745629  -87.534586418    36.1640   5   6   6.1462   4.6849   9.3348   2.1794  -2.3158   2.8288   0.00    0.0
2023/05/25 19:45:04.000   33.217787496  -87.534629001    28.5748   5   5  17.5022  21.2152  42.7140 -18.2851 -29.4588  26.2880   0.00    0.0
2023/05/25 19:45:05.000   33.217866156  -87.534758045    36.0242   5   7   6.2339   4.8232  11.2118  -3.4929  -4.1267   6.3672   0.00    0.0
2023/05/25 19:45:06.000   33.217927629  -87.534834536    34.3036   5   8   4.9249   3.8267   8.6664  -0.9903   1.9628   3.6542   0.00    0.0
2023/05/25 19:45:07.000   33.217977033  -87.534920004    34.8902   5   8   4.9249   3.8267   8.6661  -0.9911   1.9627   3.6537   0.00    0.0
2023/05/25 19:45:08.000   33.218014942  -87.534991023    34.4561   5   7   5.0434   4.6100   9.3237   1.3448  -2.2344   3.0998   0.00    0.0
2023/05/25 19:45:09.000   33.218060351  -87.535055343    33.5887   5   8   4.9251   3.8267   8.6653  -0.9927   1.9625   3.6527   0.00    0.0
2023/05/25 19:45:10.000   33.218087797  -87.535131613    34.3686   5   7   5.0432   4.6098   9.3238   1.3420  -2.2355   3.0991   0.00    0.0
2023/05/25 19:45:11.000   33.218110698  -87.535202912    35.1210   5   7   5.0432   4.6097   9.3239   1.3407  -2.2361   3.0987   0.00    0.0
2023/05/25 19:45:12.000   33.218136149  -87.535263962    35.6672   5   8   4.9254   3.8268   8.6643  -0.9952   1.9622   3.6513   0.00    0.0
2023/05/25 19:45:13.000   33.218148420  -87.535263961    27.8072   5   6   8.6288  13.8304  26.9976  -9.4610 -18.3134  13.6747   0.00    0.0
2023/05/25 19:45:14.000   33.218210398  -87.535328115    34.8125   5   8   4.9255   3.8268   8.6635  -0.9968   1.9621   3.6504   0.00    0.0
2023/05/25 19:45:15.000   33.218247621  -87.535334225    34.3374   5   6   8.4730   4.9462  11.8543  -4.3061  -4.6121   7.9149   0.00    0.0
2023/05/25 19:45:16.000   33.218284835  -87.535326224    35.2048   5   7   6.2386   4.8218  11.2111  -3.4969  -4.1265   6.3690   0.00    0.0
2023/05/25 19:45:17.000   33.218310593  -87.535294898    34.7986   5   7   5.2718   4.4419  10.4092  -2.2880   4.1067   1.5724   0.00    0.0
2023/05/25 19:45:18.000   33.218334746  -87.535255799    36.2087   5   6   7.6197   4.3910   8.6896   3.2357   2.3089   4.1030   0.00    0.0
2023/05/25 19:45:19.000   33.218306649  -87.535215477    36.4865   5   7   5.2728   4.4421  10.4075  -2.2900   4.1064   1.5670   0.00    0.0
2023/05/25 19:45:20.000   33.218346431  -87.535157333    35.4566   5   7   5.2733   4.4423  10.4066  -2.2911   4.1062   1.5643   0.00    0.0
2023/05/25 19:45:21.000   33.218344151  -87.535094349    35.1542   5   6   6.3818   4.4428  10.4378  -2.2454   4.1002  -0.7056   0.00    0.0
2023/05/25 19:45:22.000   33.218342125  -87.535034313    35.0856   5   7   5.9121   3.8474   8.6608   0.5391   1.9670   3.6715   0.00    0.0
2023/05/25 19:45:23.000   33.218344881  -87.534966526    34.3415   5   7   5.9116   3.8474   8.6604   0.5362   1.9666   3.6699   0.00    0.0
2023/05/25 19:45:24.000   33.218343388  -87.534896499    35.1343   5   6   6.3823   4.4431  10.4360  -2.2504   4.0998  -0.7479   0.00    0.0
2023/05/25 19:45:25.000   33.218350671  -87.534836559    35.1419   5   6   6.3825   4.4432  10.4354  -2.2521   4.0997  -0.7615   0.00    0.0
2023/05/25 19:45:26.000   33.218359291  -87.534778416    36.7393   5   6   6.3827   4.4434  10.4348  -2.2538   4.0996  -0.7749   0.00    0.0
2023/05/25 19:45:27.000   33.218406992  -87.534741148    35.9121   5   5   7.8626   5.0283  10.5134   2.3914   4.4540   2.3008   0.00    0.0
2023/05/25 19:45:28.000   33.218455460  -87.534716674    36.0049   5   7   5.2773   4.4433  10.3996  -2.2993   4.1049   1.5426   0.00    0.0
2023/05/25 19:45:29.000   33.218511493  -87.534710119    35.3488   5   7   6.2442   4.8202  11.2101  -3.5016  -4.1262   6.3709   0.00    0.0
2023/05/25 19:45:30.000   33.218570870  -87.534738655    37.2426   5   8   4.9269   3.8269   8.6576  -1.0099   1.9605   3.6425   0.00    0.0
2023/05/25 19:45:32.000   33.218692411  -87.534765715    34.4872   5   5  13.0689   4.9612  13.4182  -3.7567  -4.2848  11.1912   0.00    0.0
2023/05/25 19:45:33.000   33.218758085  -87.534769134    34.0108   5   5  13.0708   4.9608  13.4175  -3.7570  -4.2843  11.1914   0.00    0.0
2023/05/25 19:45:34.000   33.218819196  -87.534771849    33.8102   5   5  13.0727   4.9605  13.4168  -3.7573  -4.2839  11.1915   0.00    0.0
2023/05/25 19:45:35.000   33.218872304  -87.534772141    33.4662   5   5  13.0745   4.9602  13.4161  -3.7577  -4.2835  11.1916   0.00    0.0
2023/05/25 19:45:40.000   33.218978392  -87.534767631    32.1945   5   6   6.6920   4.9425  11.2996  -3.1075  -3.9311   6.6351   0.00    0.0
2023/05/25 19:45:44.000   33.219033037  -87.534752348    34.0937   5   8   4.9280   3.8271   8.6524  -1.0212   1.9591   3.6355   0.00    0.0
2023/05/25 19:45:45.000   33.219018624  -87.534762582    33.2516   5   8   4.9281   3.8271   8.6520  -1.0220   1.9590   3.6350   0.00    0.0
2023/05/25 19:45:47.000   33.219018364  -87.534772125    33.9713   5   8   4.9283   3.8271   8.6513  -1.0237   1.9588   3.6340   0.00    0.0
2023/05/25 19:45:48.000   33.219021668  -87.534766773    33.8448   5   8   4.9283   3.8271   8.6509  -1.0245   1.9587   3.6335   0.00    0.0
2023/05/25 19:45:49.000   33.219024725  -87.534762851    34.0965   5   8   4.9284   3.8271   8.6506  -1.0253   1.9586   3.6330   0.00    0.0
2023/05/25 19:45:50.000   33.219022172  -87.534762579    33.8345   5   8   4.9285   3.8271   8.6502  -1.0261   1.9585   3.6325   0.00    0.0
2023/05/25 19:45:51.000   33.219024135  -87.534763507    34.3358   5   8   4.9286   3.8271   8.6498  -1.0269   1.9584   3.6320   0.00    0.0
2023/05/25 19:45:52.000   33.219032382  -87.534767822    35.4808   5   8   4.9287   3.8272   8.6494  -1.0277   1.9583   3.6315   0.00    0.0
2023/05/25 19:45:53.000   33.219045166  -87.534761270    36.4136   5   8   4.9288   3.8272   8.6491  -1.0285   1.9582   3.6310   0.00    0.0
2023/05/25 19:45:54.000   33.219027956  -87.534776600    35.8957   5   8   4.9288   3.8272   8.6487  -1.0293   1.9581   3.6305   0.00    0.0
2023/05/25 19:45:56.000   33.218999402  -87.534783860    33.4999   5   8   4.9290   3.8272   8.6480  -1.0309   1.9580   3.6295   0.00    0.0
2023/05/25 19:45:57.000   33.218998070  -87.534778870    32.8245   5   8   4.9291   3.8272   8.6476  -1.0317   1.9579   3.6290   0.00    0.0
2023/05/25 19:45:58.000   33.218994562  -87.534775365    32.2749   5   8   4.9292   3.8272   8.6472  -1.0325   1.9578   3.6285   0.00    0.0
2023/05/25 19:45:59.000   33.218994375  -87.534773426    32.0537   5   8   4.9293   3.8272   8.6468  -1.0333   1.9577   3.6279   0.00    0.0
2023/05/25 19:46:00.000   33.218995533  -87.534770237    31.9456   5   8   4.9293   3.8273   8.6465  -1.0341   1.9576   3.6274   0.00    0.0
2023/05/25 19:46:01.000   33.218998109  -87.534768716    32.1676   5   8   4.9294   3.8273   8.6461  -1.0349   1.9575   3.6269   0.00    0.0
2023/05/25 19:46:02.000   33.218999158  -87.534768536    32.3303   5   8   4.9295   3.8273   8.6457  -1.0357   1.9574   3.6264   0.00    0.0
2023/05/25 19:46:03.000   33.219000258  -87.534768708    32.5329   5   8   4.9296   3.8273   8.6453  -1.0365   1.9573   3.6259   0.00    0.0
2023/05/25 19:46:04.000   33.219001295  -87.534768844    32.6931   5   8   4.9297   3.8273   8.6450  -1.0373   1.9572   3.6254   0.00    0.0
2023/05/25 19:46:05.000   33.219003251  -87.534767397    32.7906   5   8   4.9297   3.8273   8.6446  -1.0381   1.9571   3.6249   0.00    0.0
2023/05/25 19:46:06.000   33.219004876  -87.534765523    32.8071   5   8   4.9298   3.8273   8.6442  -1.0389   1.9570   3.6244   0.00    0.0
2023/05/25 19:46:07.000   33.219002872  -87.534768359    32.8523   5   7   5.2954   4.0922   8.6628   1.3111   2.1586   3.7736   0.00    0.0
2023/05/25 19:46:08.000   33.219004099  -87.534769265    33.0768   5   7   5.2959   4.0922   8.6625   1.3110   2.1589   3.7736   0.00    0.0
2023/05/25 19:46:09.000   33.219004627  -87.534769572    33.1686   5   7   5.2964   4.0921   8.6623   1.3109   2.1592   3.7735   0.00    0.0
2023/05/25 19:46:10.000   33.218983989  -87.534788308    32.5300   5   8   4.9301   3.8274   8.6427  -1.0421   1.9566   3.6223   0.00    0.0
2023/05/25 19:46:13.000   33.218991302  -87.534782271    32.7731   5   8   4.9304   3.8274   8.6416  -1.0445   1.9563   3.6207   0.00    0.0
2023/05/25 19:46:14.000   33.218996556  -87.534777480    32.9426   5   8   4.9305   3.8274   8.6412  -1.0453   1.9562   3.6202   0.00    0.0
2023/05/25 19:46:16.000   33.219007598  -87.534767658    33.3135   5   8   4.9306   3.8274   8.6405  -1.0469   1.9560   3.6192   0.00    0.0
2023/05/25 19:46:17.000   33.219002391  -87.534772196    33.1264   5   8   4.9307   3.8275   8.6401  -1.0477   1.9559   3.6186   0.00    0.0
2023/05/25 19:46:18.000   33.219000295  -87.534773840    33.0309   5   8   4.9308   3.8275   8.6397  -1.0485   1.9558   3.6181   0.00    0.0
2023/05/25 19:46:19.000   33.219000923  -87.534773566    33.0662   5   8   4.9309   3.8275   8.6393  -1.0493   1.9557   3.6176   0.00    0.0
2023/05/25 19:46:20.000   33.218992415  -87.534781492    32.7950   5   8   4.9309   3.8275   8.6390  -1.0501   1.9556   3.6171   0.00    0.0
2023/05/25 19:46:21.000   33.219002254  -87.534774449    33.0814   5   8   4.9310   3.8275   8.6386  -1.0508   1.9555   3.6165   0.00    0.0
2023/05/25 19:46:22.000   33.219025742  -87.534768378    33.2916   5   8   4.9311   3.8275   8.6382  -1.0516   1.9554   3.6160   0.00    0.0
2023/05/25 19:46:23.000   33.219057099  -87.534763108    31.7056   5   6   6.7466   4.9286  11.3144  -3.1215  -3.9154   6.6788   0.00    0.0
2023/05/25 19:46:24.000   33.219119868  -87.534761668    31.8835   5   7   6.2663   4.8134  11.2034  -3.5205  -4.1234   6.3761   0.00    0.0
2023/05/25 19:46:25.000   33.219197031  -87.534769255    33.0596   5   8   4.9313   3.8275   8.6371  -1.0540   1.9551   3.6144   0.00    0.0
2023/05/25 19:46:26.000   33.219259823  -87.534744073    26.7207   5   5   9.3769  16.4632  40.7918 -10.9976 -24.6695  16.9662   0.00    0.0
2023/05/25 19:46:27.000   33.219346109  -87.534770915    31.5715   5   5   6.9584   5.5585  12.7321  -3.7528  -0.5508   5.9021   0.00    0.0
2023/05/25 19:46:28.000   33.219431429  -87.534768678    31.7668   5   6   6.6041   5.3610  12.4739  -4.1613  -2.0111   5.4075   0.00    0.0
2023/05/25 19:46:29.000   33.219521933  -87.534776572    32.3791   5   4  13.5771   6.3036  14.0570  -1.1843  -1.1084  11.8125   0.00    0.0
2023/05/25 19:46:30.000   33.219591644  -87.534773262    30.2451   5   5  13.1753   4.9423  13.3743  -3.7761  -4.2598  11.1949   0.00    0.0
2023/05/25 19:46:31.000   33.219663183  -87.534775295    31.2640   5   6   6.3954   4.4516  10.3982  -2.3601   4.0940  -1.3890   0.00    0.0
2023/05/25 19:46:32.000   33.219737051  -87.534784942    31.1027   5   5   7.9202   5.0145  10.4661   2.2814   4.4179   1.9056   0.00    0.0
2023/05/25 19:46:33.000   33.219788722  -87.534772195    31.3292   5   8   4.9319   3.8276   8.6340  -1.0604   1.9542   3.6101   0.00    0.0
2023/05/25 19:46:34.000   33.219832428  -87.534751437    30.0618   5   6   8.3608   4.9256  11.7232  -4.2701  -4.5423   7.7321   0.00    0.0
2023/05/25 19:46:35.000   33.219879871  -87.534729727    30.7492   5   7   5.3088   4.0913   8.6546   1.3080   2.1673   3.7709   0.00    0.0
2023/05/25 19:46:36.000   33.219908655  -87.534683457    31.3322   5   6   5.5641   4.8236  10.4621  -1.5944   4.4406   2.1057   0.00    0.0
2023/05/25 19:46:37.000   33.219927966  -87.534636445    30.4544   5   6   7.0014   8.4955  15.7190  -6.2143  10.1206  -7.2258   0.00    0.0
2023/05/25 19:46:38.000   33.219939613  -87.534571974    30.6944   5   5   7.9407   8.5013  15.7939  -6.3004  10.1427  -7.6169   0.00    0.0
2023/05/25 19:46:40.000   33.219938364  -87.534306085    43.8090   5   5   7.9553  16.3483  25.6594  -9.5563  19.6398 -11.3464   0.00    0.0
2023/05/25 19:46:41.000   33.219927054  -87.534310628    31.8127   5   6   7.1081   4.6098  11.4510  -0.1079   4.7573   5.0019   0.00    0.0
2023/05/25 19:46:42.000   33.219906786  -87.534216432    33.4802   5   5   5.9236   5.3774  11.6864   1.4952   2.7061  -2.4765   0.00    0.0
2023/05/25 19:46:44.000   33.219886220  -87.534020087    31.6521   5   4  10.4257   6.7869  11.9196   6.1442   4.1294   3.7427   0.00    0.0
2023/05/25 19:46:45.000   33.219859357  -87.533903805    33.3467   5   5   7.5134   5.0513  11.6904   2.2315   5.2490   5.5446   0.00    0.0
2023/05/25 19:46:46.000   33.219827323  -87.533788029    36.6512   5   5   9.1901   5.7584  11.8381   4.4775   3.4772   2.6769   0.00    0.0
2023/05/25 19:46:48.000   33.219776015  -87.533616782    34.9967   5   4  10.4317   6.7870  11.9149   6.1450   4.1208   3.7205   0.00    0.0
2023/05/25 19:46:49.000   33.219709865  -87.533520010    38.5289   5   4  21.9997   9.7086  25.5709 -11.6723  13.7563 -21.1200   0.00    0.0
2023/05/25 19:46:50.000   33.219670935  -87.533468411    35.1989   5   5   9.1898   5.7570  11.8334   4.4720   3.4668   2.6429   0.00    0.0
2023/05/25 19:46:51.000   33.219617143  -87.533412073    33.8170   5   6   7.8343   5.7408  10.2714   4.6940   3.0819   5.9291   0.00    0.0
2023/05/25 19:46:52.000   33.219534202  -87.533386687    38.1079   5   4   9.5539  39.3745  79.9942  -9.0446 -55.4043  14.6157   0.00    0.0
2023/05/25 19:46:53.000   33.219457923  -87.533347400    33.0980   5   5   9.5475  17.4265  29.1517  -8.2372 -20.9631  13.5681   0.00    0.0
2023/05/25 19:46:54.000   33.219381593  -87.533332037    34.3177   5   5   9.5494  17.4327  29.1665  -8.2457 -20.9742  13.5758   0.00    0.0
2023/05/25 19:46:55.000   33.219313934  -87.533306852    34.5696   5   6   7.8282   5.7395  10.2659   4.6885   3.0715   5.9186   0.00    0.0
2023/05/25 19:46:56.000   33.219208781  -87.533257904    36.8560   5   4  22.0384   9.7326  25.6266 -11.7173  13.7968 -21.1821   0.00    0.0
2023/05/25 19:46:57.000   33.219115160  -87.533204702    37.7082   5   5   7.8383   8.5385  18.7086  -6.4081  10.4177  -9.3803   0.00    0.0
2023/05/25 19:46:58.000   33.219038622  -87.533140342    38.9814   5   5   9.1892   5.7542  11.8242   4.4609   3.4461   2.5738   0.00    0.0
2023/05/25 19:46:59.000   33.219007032  -87.533077641    35.4272   5   7   6.6374   4.0953  10.2419   2.3008   3.4423   6.1204   0.00    0.0
2023/05/25 19:47:00.000   33.218922436  -87.533006580    34.5550   5   8   4.9339   3.8280   8.6237  -1.0816   1.9514   3.5954   0.00    0.0
2023/05/25 19:47:01.000   33.218856875  -87.532930944    34.6013   5   8   4.9340   3.8280   8.6233  -1.0824   1.9513   3.5948   0.00    0.0
2023/05/25 19:47:02.000   33.218792805  -87.532863696    36.0477   5   6   5.5287   5.0474   9.3314   2.4762  -2.3752   2.9906   0.00    0.0
2023/05/25 19:47:03.000   33.218722459  -87.532812973    35.6349   5   4   9.2037   7.6595  10.6320   6.2345   4.8174   6.4659   0.00    0.0
2023/05/25 19:47:04.000   33.218672074  -87.532753166    36.5179   5   5   8.0215   6.1125  10.3925   4.2479   3.5865   5.6290   0.00    0.0
2023/05/25 19:47:05.000   33.218594093  -87.532647438    27.4909   5   5  12.9336  22.3706  37.0083 -16.1036 -27.8743  20.7662   0.00    0.0
2023/05/25 19:47:06.000   33.218549081  -87.532674399    33.0925   5   4   9.5878  40.2602  81.9186  -9.4496 -56.7307  15.1063   0.00    0.0
2023/05/25 19:47:07.000   33.218518921  -87.532714204    39.2431   5   6   5.5798   4.8737  11.6635  -1.5812   2.4447  -2.7392   0.00    0.0
2023/05/25 19:47:08.000   33.218488172  -87.532731529    39.3489   5   6   5.5802   4.8737  11.6631  -1.5831   2.4444  -2.7408   0.00    0.0
2023/05/25 19:47:09.000   33.218440352  -87.532736530    31.9183   5   5   9.5510  16.5295  41.0022 -11.1776 -24.7970  17.2385   0.00    0.0
2023/05/25 19:47:10.000   33.218428944  -87.532817115    38.2349   5   7   6.2832   4.8077  11.1945  -3.5354  -4.1195   6.3771   0.00    0.0
2023/05/25 19:47:11.000   33.218403105  -87.532845125    31.4308   5   5   9.5820  17.5392  29.4206  -8.3897 -21.1651  13.7070   0.00    0.0
2023/05/25 19:47:12.000   33.218402105  -87.532925546    32.3169   5   5   9.5839  17.5454  29.4356  -8.3980 -21.1763  13.7146   0.00    0.0
2023/05/25 19:47:13.000   33.218411109  -87.533024950    35.0282   5   6   6.6465   5.3705  12.4244  -4.2057  -2.0152   5.3850   0.00    0.0
2023/05/25 19:47:14.000   33.218409496  -87.533119392    33.8237   5   7   6.2846   4.8072  11.1937  -3.5366  -4.1191   6.3770   0.00    0.0
2023/05/25 19:47:15.000   33.218439438  -87.533273812    44.4696   5   7   6.2849   4.8071  11.1934  -3.5369  -4.1189   6.3770   0.00    0.0
2023/05/25 19:47:16.000   33.218427958  -87.533346770    38.8439   5   7   6.2852   4.8069  11.1932  -3.5372  -4.1188   6.3770   0.00    0.0
2023/05/25 19:47:17.000   33.218415740  -87.533435313    34.2364   5   7   6.2856   4.8068  11.1930  -3.5375  -4.1187   6.3770   0.00    0.0
2023/05/25 19:47:18.000   33.218408617  -87.533504543    28.6225   5   6   9.1435  14.2274  28.3347 -10.0714 -19.1189  14.6119   0.00    0.0
2023/05/25 19:47:19.000   33.218422850  -87.533661447    34.7227   5   7   6.2862   4.8065  11.1926  -3.5381  -4.1185   6.3769   0.00    0.0
2023/05/25 19:47:20.000   33.218408178  -87.533756348    33.2256   5   7   6.2866   4.8064  11.1923  -3.5384  -4.1183   6.3769   0.00    0.0
2023/05/25 19:47:21.000   33.218408561  -87.533872965    33.5065   5   7   6.2869   4.8063  11.1921  -3.5387  -4.1182   6.3769   0.00    0.0
2023/05/25 19:47:22.000   33.218417131  -87.533982338    34.7062   5   7   6.2872   4.8061  11.1919  -3.5390  -4.1181   6.3768   0.00    0.0
2023/05/25 19:47:23.000   33.218417355  -87.534079287    34.2551   5   7   6.2876   4.8060  11.1916  -3.5393  -4.1180   6.3768   0.00    0.0
2023/05/25 19:47:24.000   33.218411778  -87.534169192    33.9512   5   7   6.2879   4.8059  11.1914  -3.5396  -4.1179   6.3768   0.00    0.0
2023/05/25 19:47:25.000   33.218389449  -87.534266992    33.7462   5   6   8.8721   4.8254  14.1412  -3.1314  -3.6321   9.7349   0.00    0.0
2023/05/25 19:47:26.000   33.218370013  -87.534316957    29.4923   5   5   9.6106  17.6336  29.6461  -8.5145 -21.3339  13.8220   0.00    0.0
2023/05/25 19:47:27.000   33.218351270  -87.534388805    29.0357   5   5   9.6125  17.6400  29.6612  -8.5228 -21.3452  13.8297   0.00    0.0
2023/05/25 19:47:28.000   33.218338549  -87.534462322    29.4567   5   5   9.6144  17.6464  29.6763  -8.5311 -21.3566  13.8374   0.00    0.0
2023/05/25 19:47:29.000   33.218339525  -87.534531473    28.8239   5   5   9.6163  17.6528  29.6914  -8.5394 -21.3679  13.8451   0.00    0.0
2023/05/25 19:47:30.000   33.218344332  -87.534616937    28.6475   5   6   9.1919  14.2627  28.4575 -10.1268 -19.1916  14.6983   0.00    0.0
2023/05/25 19:47:31.000   33.218365823  -87.534733485    36.0547   5   7   5.0334   4.5981   9.3313   1.1333  -2.3140   3.0440   0.00    0.0
2023/05/25 19:47:32.000   33.218376288  -87.534811790    36.2676   5   7   5.0333   4.5980   9.3314   1.1317  -2.3146   3.0435   0.00    0.0
2023/05/25 19:47:33.000   33.218384819  -87.534897233    36.7602   5   7   5.0332   4.5979   9.3314   1.1301  -2.3151   3.0431   0.00    0.0
2023/05/25 19:47:34.000   33.218382340  -87.535001459    36.9063   5   8   4.9364   3.8285   8.6106  -1.1079   1.9480   3.5764   0.00    0.0
2023/05/25 19:47:35.000   33.218383855  -87.535100487    38.3742   5   7   5.0331   4.5977   9.3315   1.1269  -2.3162   3.0423   0.00    0.0
2023/05/25 19:47:36.000   33.218362740  -87.535133075    28.9093   5   6   9.2159  14.2801  28.5183 -10.1543 -19.2276  14.7411   0.00    0.0
2023/05/25 19:47:37.000   33.218350527  -87.535220812    28.9844   5   5   9.6317  17.7041  29.8126  -8.6056 -21.4588  13.9067   0.00    0.0
2023/05/25 19:47:38.000   33.218329451  -87.535311632    31.9675   5   6   8.8613   4.8245  14.1084  -3.1292  -3.6239   9.7098   0.00    0.0
2023/05/25 19:47:39.000   33.218292581  -87.535356061    32.2598   5   6   8.8604   4.8244  14.1058  -3.1290  -3.6232   9.7079   0.00    0.0
2023/05/25 19:47:40.000   33.218250725  -87.535383687    34.1923   5   6   6.6717   5.3764  12.3939  -4.2320  -2.0156   5.3700   0.00    0.0
2023/05/25 19:47:41.000   33.218235118  -87.535404821    37.4159   5   6   5.5935   4.8747  11.6515  -1.6459   2.4351  -2.7913   0.00    0.0
2023/05/25 19:47:45.000   33.218216530  -87.535398426    35.5021   5   6   5.5951   4.8748  11.6500  -1.6534   2.4339  -2.7974   0.00    0.0
2023/05/25 19:47:52.000   33.218223967  -87.535422567    32.1694   5   8   4.9376   3.8288   8.6035  -1.1217   1.9460   3.5660   0.00    0.0
2023/05/25 19:47:53.000   33.218219541  -87.535411626    34.2179   5   8   4.9377   3.8288   8.6031  -1.1225   1.9459   3.5654   0.00    0.0
2023/05/25 19:47:54.000   33.218203109  -87.535406129    34.5797   5   8   4.9377   3.8288   8.6027  -1.1233   1.9458   3.5648   0.00    0.0
2023/05/25 19:47:55.000   33.218179650  -87.535401726    35.6706   5   7   5.3536   4.4638  10.2719  -2.4516   4.0826   1.0448   0.00    0.0
2023/05/25 19:47:56.000   33.218143367  -87.535390042    36.4898   5   6   5.5997   4.8752  11.6461  -1.6738   2.4308  -2.8144   0.00    0.0
2023/05/25 19:47:57.000   33.218067794  -87.535364806    37.1431   5   4  22.3682   9.9485  26.1146 -12.1101  14.1564 -21.7165   0.00    0.0
2023/05/25 19:48:00.000   33.217969466  -87.535170885    34.0617   5   6   7.1244   8.5972  15.6603  -6.3678  10.1754  -7.3824   0.00    0.0
2023/05/25 19:48:01.000   33.217950410  -87.535086644    34.9454   5   7   5.0513   4.5365   8.9187  -1.9646   3.0874   3.1885   0.00    0.0
2023/05/25 19:48:02.000   33.217912892  -87.535007238    33.4858   5   7   5.0513   4.5366   8.9183  -1.9650   3.0874   3.1879   0.00    0.0
2023/05/25 19:48:03.000   33.217866438  -87.534916310    33.7063   5   7   5.0513   4.5367   8.9180  -1.9653   3.0875   3.1873   0.00    0.0
2023/05/25 19:48:04.000   33.217805836  -87.534818097    34.5172   5   7   6.6052   4.0997  10.1390   2.2689   3.4137   6.0191   0.00    0.0
2023/05/25 19:48:05.000   33.217749858  -87.534741596    34.1462   5   7   5.0513   4.5369   8.9172  -1.9659   3.0875   3.1862   0.00    0.0
2023/05/25 19:48:06.000   33.217669042  -87.534662667    34.9210   5   7   5.0310   4.5954   9.3328   1.0755  -2.3328   3.0286   0.00    0.0
2023/05/25 19:48:07.000   33.217602109  -87.534583615    34.5210   5   8   4.9386   3.8290   8.5976  -1.1332   1.9444   3.5570   0.00    0.0
2023/05/25 19:48:08.000   33.217514298  -87.534522867    34.5956   5   7   5.0309   4.5952   9.3329   1.0722  -2.3338   3.0277   0.00    0.0
2023/05/25 19:48:09.000   33.217456687  -87.534449065    35.5179   5   7   5.0514   4.5374   8.9158  -1.9672   3.0876   3.1839   0.00    0.0
2023/05/25 19:48:11.000   33.217288320  -87.534296833    36.3786   5   7   5.0307   4.5950   9.3330   1.0670  -2.3354   3.0263   0.00    0.0
2023/05/25 19:48:12.000   33.217218299  -87.534215952    36.7576   5   6   7.7098   5.7145  10.1626   4.5809   2.8647   5.7142   0.00    0.0
2023/05/25 19:48:13.000   33.217153141  -87.534133801    36.6345   5   6   7.7083   5.7142  10.1613   4.5795   2.8619   5.7115   0.00    0.0
2023/05/25 19:48:15.000   33.217027275  -87.533946966    37.4757   5   7   6.5996   4.1004  10.1214   2.2631   3.4085   6.0014   0.00    0.0
2023/05/25 19:48:16.000   33.216969002  -87.533847302    37.9101   5   7   6.5990   4.1005  10.1198   2.2626   3.4080   5.9998   0.00    0.0
2023/05/25 19:48:17.000   33.216898239  -87.533767520    37.3010   5   7   5.0303   4.5946   9.3332   1.0568  -2.3386   3.0236   0.00    0.0
2023/05/25 19:48:18.000   33.216857938  -87.533654270    37.0596   5   8   4.9394   3.8292   8.5933  -1.1416   1.9432   3.5504   0.00    0.0
2023/05/25 19:48:19.000   33.216828133  -87.533551210    39.0611   5   6   5.1316   5.2573   9.5888  -1.2188   0.3817   2.6275   0.00    0.0
2023/05/25 19:48:20.000   33.216762003  -87.533457340    37.8980   5   6   5.1315   5.2574   9.5888  -1.2201   0.3788   2.6271   0.00    0.0
2023/05/25 19:48:21.000   33.216717333  -87.533350431    37.8530   5   6   5.1314   5.2575   9.5888  -1.2214   0.3757   2.6268   0.00    0.0
2023/05/25 19:48:22.000   33.216681921  -87.533231435    38.1579   5   7   5.3682   4.4679  10.2489  -2.4796   4.0789   0.9183   0.00    0.0
2023/05/25 19:48:23.000   33.216653355  -87.533115262    39.0041   5   7   5.3688   4.4681  10.2481  -2.4807   4.0787   0.9132   0.00    0.0
2023/05/25 19:48:24.000   33.216624222  -87.533003550    38.5618   5   6   5.6519   4.8298  10.3837  -1.7097   4.4397   1.9456   0.00    0.0
2023/05/25 19:48:25.000   33.216583804  -87.532901688    37.9444   5   5   5.9932   5.3631  11.6550   1.3099   2.7141  -2.6009   0.00    0.0
2023/05/25 19:48:26.000   33.216555699  -87.532791460    37.6451   5   7   5.3704   4.4685  10.2455  -2.4838   4.0783   0.8978   0.00    0.0
2023/05/25 19:48:27.000   33.216511540  -87.532687720    38.6234   5   7   5.3709   4.4687  10.2447  -2.4848   4.0782   0.8926   0.00    0.0
2023/05/25 19:48:28.000   33.216458780  -87.532614608    35.8775   5   7   6.5926   4.1012  10.1005   2.2560   3.4022   5.9802   0.00    0.0
2023/05/25 19:48:29.000   33.216410501  -87.532536971    35.0039   5   6   6.7771   4.6940  10.2510   1.2233   3.9482   5.7426   0.00    0.0
2023/05/25 19:48:30.000   33.216354641  -87.532461426    34.7091   5   6   6.7763   4.6942  10.2496   1.2231   3.9482   5.7409   0.00    0.0
2023/05/25 19:48:31.000   33.216295494  -87.532392874    34.4157   5   6   6.7756   4.6945  10.2482   1.2228   3.9482   5.7392   0.00    0.0
2023/05/25 19:48:32.000   33.216230255  -87.532334479    33.0159   5   7   5.0515   4.5401   8.9072  -1.9746   3.0881   3.1704   0.00    0.0
2023/05/25 19:48:33.000   33.216169459  -87.532271486    34.7884   5   7   6.5900   4.1015  10.0924   2.2533   3.3998   5.9721   0.00    0.0
2023/05/25 19:48:34.000   33.216087672  -87.532246970    34.9978   5   6   5.1297   5.2590   9.5885  -1.2384   0.3340   2.6220   0.00    0.0
2023/05/25 19:48:35.000   33.216021500  -87.532220084    34.9912   5   6   5.1296   5.2591   9.5885  -1.2397   0.3306   2.6217   0.00    0.0
2023/05/25 19:48:36.000   33.215991847  -87.532192698    35.2838   5   5   7.8458   6.1206  10.2871   4.1289   3.4314   5.3846   0.00    0.0
2023/05/25 19:48:37.000   33.215971499  -87.532174382    34.9916   5   6   5.1294   5.2593   9.5884  -1.2423   0.3236   2.6209   0.00    0.0
2023/05/25 19:48:38.000   33.215942367  -87.532160459    35.2961   5   6   5.1292   5.2594   9.5884  -1.2435   0.3200   2.6206   0.00    0.0
2023/05/25 19:48:39.000   33.215935984  -87.532157094    34.8816   5   6   5.1291   5.2595   9.5884  -1.2448   0.3164   2.6202   0.00    0.0
2023/05/25 19:48:40.000   33.215919383  -87.532132537    37.3723   5   7   5.0288   4.5929   9.3340   1.0164  -2.3507   3.0129   0.00    0.0
2023/05/25 19:48:41.000   33.215913801  -87.532136571    36.7916   5   7   5.0287   4.5928   9.3340   1.0146  -2.3512   3.0124   0.00    0.0
2023/05/25 19:48:42.000   33.215916047  -87.532161511    34.6167   5   7   5.0286   4.5928   9.3340   1.0129  -2.3517   3.0119   0.00    0.0
2023/05/25 19:48:43.000   33.215921026  -87.532144707    36.3840   5   7   5.0285   4.5927   9.3341   1.0111  -2.3522   3.0114   0.00    0.0
2023/05/25 19:48:44.000   33.215924415  -87.532140209    37.0690   5   7   5.0285   4.5926   9.3341   1.0093  -2.3528   3.0109   0.00    0.0
2023/05/25 19:48:45.000   33.215922612  -87.532161539    40.2610   5   8   4.9411   3.8297   8.5824  -1.1620   1.9401   3.5337   0.00    0.0
2023/05/25 19:48:46.000   33.215918357  -87.532160459    39.5540   5   8   4.9411   3.8297   8.5820  -1.1627   1.9400   3.5331   0.00    0.0
2023/05/25 19:48:47.000   33.215920408  -87.532161957    38.9336   5   8   4.9412   3.8297   8.5816  -1.1635   1.9399   3.5325   0.00    0.0
2023/05/25 19:48:48.000   33.215915156  -87.532173996    36.1351   5   8   4.9412   3.8297   8.5812  -1.1642   1.9398   3.5318   0.00    0.0
2023/05/25 19:48:49.000   33.215907478  -87.532172853    33.3325   5   8   4.9413   3.8297   8.5808  -1.1650   1.9397   3.5312   0.00    0.0
2023/05/25 19:48:50.000   33.215902689  -87.532157490    32.7862   5   7   5.0515   4.5423   8.9004  -1.9803   3.0884   3.1597   0.00    0.0
2023/05/25 19:48:51.000   33.215885440  -87.532148156    32.9881   5   6   5.1275   5.2609   9.5881  -1.2602   0.2688   2.6157   0.00    0.0
2023/05/25 19:48:52.000   33.215852364  -87.532098998    35.8210   5   6   7.2045   8.6631  15.6288  -6.4666  10.2132  -7.4846   0.00    0.0
2023/05/25 19:48:53.000   33.215835048  -87.532048026    35.3606   5   7   5.0515   4.5426   8.8992  -1.9812   3.0884   3.1579   0.00    0.0
2023/05/25 19:48:54.000   33.215826371  -87.532006299    31.6305   5   5   8.2718  17.0855  26.3670 -10.0811  20.4217 -11.9277   0.00    0.0
2023/05/25 19:48:56.000   33.215864172  -87.531827619    35.0330   5   5   8.1629   8.6871  15.7938  -6.6412  10.2802  -8.0568   0.00    0.0
2023/05/25 19:48:57.000   33.215893799  -87.531749844    34.9587   5   5   8.1646   8.6886  15.7940  -6.6437  10.2814  -8.0600   0.00    0.0
2023/05/25 19:48:58.000   33.215923426  -87.531660324    35.5287   5   5   8.1663   8.6900  15.7942  -6.6462  10.2825  -8.0633   0.00    0.0
2023/05/25 19:48:59.000   33.215952007  -87.531589248    33.3215   5   5   8.1680   8.6914  15.7945  -6.6487  10.2836  -8.0665   0.00    0.0
2023/05/25 19:49:00.000   33.215962607  -87.531484338    35.8398   5   6   5.8500   4.5848   8.8992  -1.4564   3.0665   3.0488   0.00    0.0
2023/05/25 19:49:01.000   33.215974318  -87.531385899    36.7340   5   6   6.4336   4.4752  10.3337  -2.5922   4.0937  -2.2343   0.00    0.0
2023/05/25 19:49:03.000   33.215990191  -87.531201722    36.7745   5   5   8.0647   4.9848  10.3777   1.9841   4.3441  -0.5952   0.00    0.0
2023/05/25 19:49:04.000   33.215996195  -87.531120571    36.1724   5   5   8.1765   8.6985  15.7955  -6.6613  10.2893  -8.0826   0.00    0.0
2023/05/25 19:49:05.000   33.216009259  -87.531029765    37.2199   5   6   7.6777   4.3565   8.6106   3.1485   2.1996   3.7313   0.00    0.0
2023/05/25 19:49:06.000   33.216010798  -87.530976513    36.0991   5   6   7.6780   4.3563   8.6103   3.1480   2.1991   3.7295   0.00    0.0
2023/05/25 19:49:07.000   33.216013123  -87.530945648    32.3121   5   5   8.1817   8.7028  15.7962  -6.6689  10.2928  -8.0923   0.00    0.0
2023/05/25 19:49:08.000   33.216008722  -87.530855860    37.3642   5   5   8.0697   4.9839  10.3752   1.9730   4.3419  -0.6997   0.00    0.0
2023/05/25 19:49:09.000   33.215998885  -87.530827472    36.4383   5   5   8.0708   4.9837  10.3747   1.9708   4.3414  -0.7188   0.00    0.0
2023/05/25 19:49:10.000   33.215972423  -87.530803088    36.6704   5   7   5.3946   4.4754  10.2081  -2.5296   4.0725   0.6257   0.00    0.0
2023/05/25 19:49:11.000   33.215954650  -87.530788749    36.3495   5   7   5.3951   4.4756  10.2072  -2.5307   4.0724   0.6181   0.00    0.0
2023/05/25 19:49:12.000   33.215928688  -87.530776927    36.1103   5   7   6.5683   4.1038  10.0294   2.2311   3.3803   5.9070   0.00    0.0
2023/05/25 19:49:13.000   33.215911042  -87.530778063    35.7996   5   7   6.5677   4.1039  10.0278   2.2305   3.3798   5.9053   0.00    0.0
2023/05/25 19:49:14.000   33.215916462  -87.530775995    36.4621   5   8   4.9427   3.8301   8.5706  -1.1837   1.9367   3.5151   0.00    0.0
2023/05/25 19:49:15.000   33.215909208  -87.530775493    36.5284   5   8   4.9427   3.8301   8.5702  -1.1844   1.9366   3.5144   0.00    0.0
2023/05/25 19:49:16.000   33.215914162  -87.530774417    36.2535   5   8   4.9428   3.8301   8.5697  -1.1852   1.9365   3.5138   0.00    0.0
2023/05/25 19:49:17.000   33.215919188  -87.530772713    36.2259   5   8   4.9428   3.8301   8.5693  -1.1859   1.9363   3.5131   0.00    0.0
2023/05/25 19:49:18.000   33.215905492  -87.530775964    35.6127   5   8   4.9429   3.8302   8.5689  -1.1866   1.9362   3.5124   0.00    0.0
2023/05/25 19:49:19.000   33.215901723  -87.530781884    34.3331   5   8   4.9430   3.8302   8.5685  -1.1874   1.9361   3.5118   0.00    0.0
2023/05/25 19:49:20.000   33.215903102  -87.530783754    33.5604   5   8   4.9430   3.8302   8.5681  -1.1881   1.9360   3.5111   0.00    0.0
2023/05/25 19:49:21.000   33.215906465  -87.530785339    33.1408   5   8   4.9431   3.8302   8.5677  -1.1889   1.9359   3.5105   0.00    0.0
2023/05/25 19:49:22.000   33.215910241  -87.530785782    32.8731   5   8   4.9431   3.8302   8.5673  -1.1896   1.9357   3.5098   0.00    0.0
2023/05/25 19:49:23.000   33.215906421  -87.530784616    33.5161   5   7   5.4018   4.4776  10.1970  -2.5432   4.0709   0.5174   0.00    0.0
2023/05/25 19:49:24.000   33.215903780  -87.530784883    33.7916   5   8   4.9432   3.8303   8.5664  -1.1911   1.9355   3.5085   0.00    0.0
2023/05/25 19:49:25.000   33.215898104  -87.530777507    35.2620   5   8   4.9433   3.8303   8.5660  -1.1918   1.9354   3.5079   0.00    0.0
2023/05/25 19:49:26.000   33.215894869  -87.530777943    35.0850   5   8   4.9433   3.8303   8.5656  -1.1926   1.9353   3.5072   0.00    0.0
2023/05/25 19:49:27.000   33.215899424  -87.530785934    33.3694   5   8   4.9434   3.8303   8.5652  -1.1933   1.9352   3.5065   0.00    0.0
2023/05/25 19:49:28.000   33.215897115  -87.530791340    31.4087   5   8   4.9434   3.8303   8.5648  -1.1940   1.9350   3.5059   0.00    0.0
2023/05/25 19:49:29.000   33.215883929  -87.530787233    31.6060   5   8   4.9435   3.8303   8.5644  -1.1948   1.9349   3.5052   0.00    0.0
2023/05/25 19:49:30.000   33.215894693  -87.530781920    33.0299   5   8   4.9435   3.8304   8.5639  -1.1955   1.9348   3.5046   0.00    0.0
2023/05/25 19:49:31.000   33.215905395  -87.530775236    34.9684   5   7   6.5573   4.1049   9.9985   2.2198   3.3705   5.8746   0.00    0.0
2023/05/25 19:49:32.000   33.215897716  -87.530771196    35.5313   5   8   4.9436   3.8304   8.5631  -1.1970   1.9346   3.5032   0.00    0.0
2023/05/25 19:49:33.000   33.215903571  -87.530768591    36.0737   5   8   4.9437   3.8304   8.5627  -1.1977   1.9344   3.5026   0.00    0.0
2023/05/25 19:49:34.000   33.215908256  -87.530772017    35.3958   5   8   4.9437   3.8304   8.5623  -1.1985   1.9343   3.5019   0.00    0.0
2023/05/25 19:49:35.000   33.215904299  -87.530773208    34.7635   5   8   4.9438   3.8304   8.5619  -1.1992   1.9342   3.5012   0.00    0.0
2023/05/25 19:49:36.000   33.215911435  -87.530775641    34.5777   5   8   4.9438   3.8305   8.5614  -1.1999   1.9341   3.5006   0.00    0.0
2023/05/25 19:49:37.000   33.215895933  -87.530769843    35.7882   5   7   5.4096   4.4799  10.1851  -2.5579   4.0692   0.3650   0.00    0.0
2023/05/25 19:49:38.000   33.215896623  -87.530771723    35.5379   5   7   5.4102   4.4800  10.1843  -2.5589   4.0691   0.3516   0.00    0.0
2023/05/25 19:49:39.000   33.215902353  -87.530771099    35.9727   5   7   5.4107   4.4802  10.1834  -2.5600   4.0689   0.3376   0.00    0.0
2023/05/25 19:49:40.000   33.215900077  -87.530772582    35.6121   5   7   5.4113   4.4804  10.1826  -2.5610   4.0688   0.3230   0.00    0.0
2023/05/25 19:49:41.000   33.215909138  -87.530770483    36.4502   5   7   5.4118   4.4805  10.1817  -2.5621   4.0687   0.3076   0.00    0.0
2023/05/25 19:49:42.000   33.215901122  -87.530773149    35.6203   5   6   7.1698   4.6199  11.0597  -1.1297   4.6278   4.5168   0.00    0.0
2023/05/25 19:49:43.000   33.215940308  -87.530762181    39.5478   5   7   5.4130   4.4809  10.1800  -2.5641   4.0685   0.2744   0.00    0.0
2023/05/25 19:49:44.000   33.215947269  -87.530760359    40.2218   5   7   5.4135   4.4810  10.1792  -2.5652   4.0683   0.2561   0.00    0.0
2023/05/25 19:49:45.000   33.215952498  -87.530759198    40.7441   5   7   5.4141   4.4812  10.1783  -2.5662   4.0682   0.2365   0.00    0.0
2023/05/25 19:49:46.000   33.215900647  -87.530774130    35.4572   5   6   7.1711   4.6202  11.0513  -1.1426   4.6250   4.5052   0.00    0.0
2023/05/25 19:49:47.000   33.215900395  -87.530774490    35.4232   5   6   7.1715   4.6203  11.0492  -1.1458   4.6243   4.5023   0.00    0.0
2023/05/25 19:49:48.000   33.215921181  -87.530792550    31.6376   5   7   6.5473   4.1059   9.9707   2.2094   3.3615   5.8452   0.00    0.0
2023/05/25 19:49:49.000   33.216043131  -87.530740436    48.3520   5   8   4.9445   3.8307   8.5560  -1.2095   1.9325   3.4918   0.00    0.0
2023/05/25 19:49:50.000   33.216048574  -87.530734864    49.9456   5   8   4.9445   3.8307   8.5555  -1.2102   1.9323   3.4911   0.00    0.0
2023/05/25 19:49:51.000   33.216050078  -87.530740902    48.5460   5   8   4.9446   3.8307   8.5551  -1.2110   1.9322   3.4905   0.00    0.0
2023/05/25 19:49:52.000   33.216027530  -87.530747045    46.3290   5   8   4.9446   3.8307   8.5547  -1.2117   1.9321   3.4898   0.00    0.0
2023/05/25 19:49:53.000   33.216003759  -87.530759449    42.5500   5   8   4.9447   3.8308   8.5543  -1.2124   1.9320   3.4891   0.00    0.0
2023/05/25 19:49:54.000   33.215959954  -87.530768725    38.9378   5   8   4.9447   3.8308   8.5539  -1.2132   1.9319   3.4884   0.00    0.0
2023/05/25 19:49:55.000   33.215933389  -87.530785720    33.9249   5   8   4.9448   3.8308   8.5534  -1.2139   1.9317   3.4878   0.00    0.0
2023/05/25 19:49:56.000   33.215921369  -87.530791715    32.0730   5   8   4.9449   3.8308   8.5530  -1.2146   1.9316   3.4871   0.00    0.0
2023/05/25 19:49:57.000   33.215916150  -87.530792736    31.6849   5   8   4.9449   3.8308   8.5526  -1.2154   1.9315   3.4864   0.00    0.0
2023/05/25 19:49:58.000   33.215917292  -87.530791512    32.0643   5   8   4.9449   3.8308   8.5522  -1.2161   1.9314   3.4857   0.00    0.0
2023/05/25 19:49:59.000   33.215922539  -87.530796078    31.1666   5   8   4.9450   3.8309   8.5517  -1.2168   1.9312   3.4850   0.00    0.0
2023/05/25 19:50:00.000   33.215919054  -87.530800279    30.0936   5   8   4.9450   3.8309   8.5513  -1.2176   1.9311   3.4843   0.00    0.0
2023/05/25 19:50:01.000   33.215909387  -87.530790742    32.1619   5   8   4.9451   3.8309   8.5509  -1.2183   1.9310   3.4837   0.00    0.0
2023/05/25 19:50:02.000   33.215908217  -87.530790437    32.2019   5   8   4.9451   3.8309   8.5504  -1.2190   1.9309   3.4830   0.00    0.0
2023/05/25 19:50:03.000   33.215905114  -87.530788157    32.7192   5   8   4.9452   3.8309   8.5500  -1.2197   1.9307   3.4823   0.00    0.0
2023/05/25 19:50:04.000   33.215897728  -87.530781454    34.1354   5   8   4.9452   3.8309   8.5496  -1.2205   1.9306   3.4816   0.00    0.0
2023/05/25 19:50:05.000   33.215907325  -87.530783519    33.9125   5   8   4.9453   3.8310   8.5492  -1.2212   1.9305   3.4809   0.00    0.0
2023/05/25 19:50:06.000   33.215904278  -87.530781077    34.4501   5   7   6.5364   4.1068   9.9410   2.1981   3.3517   5.8136   0.00    0.0
2023/05/25 19:50:07.000   33.215906646  -87.530780205    34.6718   5   8   4.9454   3.8310   8.5483  -1.2227   1.9302   3.4795   0.00    0.0
2023/05/25 19:50:08.000   33.215913103  -87.530773921    36.3988   5   8   4.9454   3.8310   8.5479  -1.2234   1.9301   3.4788   0.00    0.0
2023/05/25 19:50:09.000   33.215926602  -87.530767288    38.4225   5   8   4.9455   3.8310   8.5474  -1.2241   1.9300   3.4781   0.00    0.0
2023/05/25 19:50:10.000   33.215934485  -87.530762831    39.7494   5   8   4.9455   3.8311   8.5470  -1.2249   1.9298   3.4774   0.00    0.0
2023/05/25 19:50:11.000   33.215937956  -87.530766264    39.0510   5   8   4.9456   3.8311   8.5466  -1.2256   1.9297   3.4767   0.00    0.0
2023/05/25 19:50:12.000   33.215922700  -87.530775243    36.4003   5   8   4.9456   3.8311   8.5461  -1.2263   1.9296   3.4760   0.00    0.0
2023/05/25 19:50:13.000   33.215912526  -87.530775380    36.0481   5   8   4.9457   3.8311   8.5457  -1.2270   1.9295   3.4754   0.00    0.0
2023/05/25 19:50:14.000   33.215912312  -87.530772796    36.6588   5   8   4.9457   3.8311   8.5453  -1.2278   1.9293   3.4747   0.00    0.0
2023/05/25 19:50:15.000   33.215905647  -87.530776390    35.5254   5   8   4.9458   3.8311   8.5448  -1.2285   1.9292   3.4740   0.00    0.0
2023/05/25 19:50:16.000   33.215906376  -87.530780699    34.4653   5   8   4.9458   3.8312   8.5444  -1.2292   1.9291   3.4733   0.00    0.0
2023/05/25 19:50:17.000   33.215907153  -87.530779310    34.7395   5   8   4.9459   3.8312   8.5439  -1.2299   1.9289   3.4726   0.00    0.0
2023/05/25 19:50:18.000   33.215921562  -87.530780959    34.8497   5   8   4.9459   3.8312   8.5435  -1.2307   1.9288   3.4719   0.00    0.0
2023/05/25 19:50:19.000   33.215922057  -87.530795950    31.2663   5   8   4.9459   3.8312   8.5431  -1.2314   1.9287   3.4712   0.00    0.0
2023/05/25 19:50:20.000   33.215921749  -87.530798484    30.6920   5   8   4.9460   3.8312   8.5426  -1.2321   1.9286   3.4705   0.00    0.0
2023/05/25 19:50:21.000   33.215918911  -87.530794820    31.5780   5   8   4.9460   3.8312   8.5422  -1.2329   1.9284   3.4698   0.00    0.0
2023/05/25 19:50:22.000   33.215919944  -87.530789317    32.9960   5   8   4.9461   3.8313   8.5418  -1.2336   1.9283   3.4690   0.00    0.0
2023/05/25 19:50:23.000   33.215918039  -87.530785729    33.7961   5   8   4.9461   3.8313   8.5413  -1.2343   1.9282   3.4683   0.00    0.0
2023/05/25 19:50:24.000   33.215913166  -87.530782885    34.3671   5   8   4.9462   3.8313   8.5409  -1.2350   1.9280   3.4676   0.00    0.0
2023/05/25 19:50:25.000   33.215912711  -87.530782595    34.4237   5   8   4.9462   3.8313   8.5404  -1.2358   1.9279   3.4669   0.00    0.0
2023/05/25 19:50:26.000   33.215909829  -87.530782673    34.3336   5   8   4.9463   3.8313   8.5400  -1.2365   1.9278   3.4662   0.00    0.0
2023/05/25 19:50:27.000   33.215905366  -87.530783126    34.0916   5   8   4.9463   3.8314   8.5395  -1.2372   1.9276   3.4655   0.00    0.0
2023/05/25 19:50:28.000   33.215902472  -87.530782859    34.0609   5   8   4.9464   3.8314   8.5391  -1.2379   1.9275   3.4648   0.00    0.0
2023/05/25 19:50:29.000   33.215900850  -87.530781773    34.2394   5   8   4.9464   3.8314   8.5387  -1.2387   1.9274   3.4641   0.00    0.0
2023/05/25 19:50:30.000   33.215897920  -87.530783089    33.8265   5   8   4.9464   3.8314   8.5382  -1.2394   1.9272   3.4634   0.00    0.0
2023/05/25 19:50:31.000   33.215895307  -87.530784016    33.4915   5   8   4.9465   3.8314   8.5378  -1.2401   1.9271   3.4627   0.00    0.0
2023/05/25 19:50:32.000   33.215894467  -87.530784502    33.3757   5   8   4.9465   3.8314   8.5373  -1.2408   1.9270   3.4620   0.00    0.0
2023/05/25 19:50:33.000   33.215895521  -87.530784315    33.4661   5   8   4.9466   3.8315   8.5369  -1.2416   1.9268   3.4613   0.00    0.0
2023/05/25 19:50:34.000   33.215897516  -87.530783611    33.7346   5   8   4.9466   3.8315   8.5364  -1.2423   1.9267   3.4605   0.00    0.0
2023/05/25 19:50:35.000   33.215899081  -87.530783248    33.9483   5   8   4.9467   3.8315   8.5360  -1.2430   1.9265   3.4598   0.00    0.0
2023/05/25 19:50:36.000   33.215899665  -87.530783284    33.9934   5   8   4.9467   3.8315   8.5355  -1.2437   1.9264   3.4591   0.00    0.0
2023/05/25 19:50:37.000   33.215899757  -87.530783320    33.9898   5   8   4.9468   3.8315   8.5351  -1.2444   1.9263   3.4584   0.00    0.0
2023/05/25 19:50:38.000   33.215899920  -87.530783245    34.0191   5   8   4.9468   3.8315   8.5346  -1.2452   1.9261   3.4577   0.00    0.0
2023/05/25 19:50:39.000   33.215900126  -87.530783311    34.0619   5   8   4.9468   3.8316   8.5342  -1.2459   1.9260   3.4570   0.00    0.0
2023/05/25 19:50:40.000   33.215900459  -87.530783468    34.1049   5   8   4.9469   3.8316   8.5337  -1.2466   1.9259   3.4562   0.00    0.0
2023/05/25 19:50:41.000   33.215901068  -87.530783742    34.1380   5   8   4.9469   3.8316   8.5333  -1.2473   1.9257   3.4555   0.00    0.0
2023/05/25 19:50:42.000   33.215901261  -87.530783775    34.1978   5   8   4.9470   3.8316   8.5329  -1.2481   1.9256   3.4548   0.00    0.0
2023/05/25 19:50:43.000   33.215901598  -87.530783841    34.2424   5   8   4.9470   3.8316   8.5324  -1.2488   1.9255   3.4541   0.00    0.0
2023/05/25 19:50:44.000   33.215902025  -87.530783839    34.2782   5   8   4.9471   3.8317   8.5320  -1.2495   1.9253   3.4534   0.00    0.0
2023/05/25 19:50:45.000   33.215902229  -87.530784022    34.2954   5   8   4.9471   3.8317   8.5315  -1.2502   1.9252   3.4526   0.00    0.0
2023/05/25 19:50:46.000   33.215902185  -87.530784154    34.3234   5   8   4.9471   3.8317   8.5311  -1.2509   1.9251   3.4519   0.00    0.0
2023/05/25 19:50:47.000   33.215899228  -87.530780452    35.1744   5   7   5.4495   4.4918  10.1250  -2.6312   4.0607  -0.7435   0.00    0.0
