% program   : RTKPOST ver.2.4.3 b34
% inp file  : C:\Users\abdal\OneDrive\Documents\UA_REU\Positioning\data\New.23O
% inp file  : C:\Users\abdal\OneDrive\Documents\UA_REU\Positioning\data\New.23N
% obs start : 2023/07/14 20:07:02.0 GPST (week2270 504422.0s)
% obs end   : 2023/07/14 20:33:45.0 GPST (week2270 506025.0s)
% pos mode  : Single
% elev mask : 15.0 deg
% ionos opt : Broadcast
% tropo opt : Saastamoinen
% ephemeris : Broadcast
% navi sys  : GPS
%
% (lat/lon/height=WGS84/ellipsoidal,Q=1:fix,2:float,3:sbas,4:dgps,5:single,6:ppp,ns=# of satellites)
%  GPST                  latitude(deg) longitude(deg)  height(m)   Q  ns   sdn(m)   sde(m)   sdu(m)  sdne(m)  sdeu(m)  sdun(m) age(s)  ratio
2023/07/14 20:07:02.000   33.219127227  -87.535500411    33.2900   5   7   4.1525   4.0007  10.6780  -1.6067   3.8248  -3.1015   0.00    0.0
2023/07/14 20:07:03.000   33.219127235  -87.535500488    33.2580   5   7   4.1525   4.0011  10.6791  -1.6071   3.8263  -3.1032   0.00    0.0
2023/07/14 20:07:04.000   33.219127176  -87.535500510    33.2293   5   7   4.1526   4.0015  10.6801  -1.6076   3.8278  -3.1049   0.00    0.0
2023/07/14 20:07:05.000   33.219127147  -87.535500445    33.2296   5   7   4.1526   4.0019  10.6812  -1.6080   3.8293  -3.1067   0.00    0.0
2023/07/14 20:07:06.000   33.219127074  -87.535500418    33.2379   5   7   4.1527   4.0023  10.6823  -1.6085   3.8308  -3.1084   0.00    0.0
2023/07/14 20:07:07.000   33.219127028  -87.535500407    33.2205   5   7   4.1527   4.0027  10.6834  -1.6089   3.8323  -3.1101   0.00    0.0
2023/07/14 20:07:08.000   33.219127007  -87.535500379    33.2275   5   7   4.1528   4.0031  10.6845  -1.6094   3.8338  -3.1118   0.00    0.0
2023/07/14 20:07:09.000   33.219126930  -87.535500325    33.2392   5   7   4.1528   4.0035  10.6855  -1.6098   3.8353  -3.1136   0.00    0.0
2023/07/14 20:07:10.000   33.219126861  -87.535500293    33.2318   5   7   4.1529   4.0039  10.6866  -1.6103   3.8368  -3.1153   0.00    0.0
2023/07/14 20:07:11.000   33.219126786  -87.535500200    33.2173   5   7   4.1529   4.0043  10.6877  -1.6107   3.8383  -3.1170   0.00    0.0
2023/07/14 20:07:12.000   33.219126742  -87.535500154    33.1902   5   7   4.1530   4.0047  10.6888  -1.6111   3.8398  -3.1187   0.00    0.0
2023/07/14 20:07:13.000   33.219126732  -87.535500110    33.1788   5   7   4.1530   4.0051  10.6899  -1.6116   3.8413  -3.1205   0.00    0.0
2023/07/14 20:07:14.000   33.219126689  -87.535500051    33.1653   5   7   4.1531   4.0055  10.6909  -1.6120   3.8428  -3.1222   0.00    0.0
2023/07/14 20:07:15.000   33.219126672  -87.535499994    33.1332   5   7   4.1531   4.0059  10.6920  -1.6125   3.8442  -3.1239   0.00    0.0
2023/07/14 20:07:16.000   33.219126645  -87.535499853    33.1144   5   7   4.1532   4.0063  10.6931  -1.6129   3.8457  -3.1256   0.00    0.0
2023/07/14 20:07:17.000   33.219126564  -87.535499721    33.1130   5   7   4.1532   4.0067  10.6942  -1.6134   3.8472  -3.1273   0.00    0.0
2023/07/14 20:07:18.000   33.219126439  -87.535499623    33.1127   5   7   4.1533   4.0072  10.6953  -1.6138   3.8487  -3.1291   0.00    0.0
2023/07/14 20:07:19.000   33.219126398  -87.535499567    33.1132   5   7   4.1533   4.0076  10.6963  -1.6143   3.8502  -3.1308   0.00    0.0
2023/07/14 20:07:20.000   33.219126345  -87.535499496    33.1001   5   7   4.1534   4.0080  10.6974  -1.6147   3.8517  -3.1325   0.00    0.0
2023/07/14 20:07:21.000   33.219126291  -87.535499471    33.0901   5   7   4.1534   4.0084  10.6985  -1.6152   3.8532  -3.1342   0.00    0.0
2023/07/14 20:07:22.000   33.219126214  -87.535499413    33.0971   5   7   4.1535   4.0088  10.6996  -1.6156   3.8547  -3.1359   0.00    0.0
2023/07/14 20:07:23.000   33.219126241  -87.535499396    33.0864   5   7   4.1535   4.0092  10.7007  -1.6161   3.8562  -3.1376   0.00    0.0
2023/07/14 20:07:24.000   33.219126224  -87.535499406    33.0666   5   7   4.1536   4.0096  10.7017  -1.6165   3.8576  -3.1393   0.00    0.0
2023/07/14 20:07:25.000   33.219126201  -87.535499447    33.0509   5   7   4.1536   4.0100  10.7028  -1.6170   3.8591  -3.1411   0.00    0.0
2023/07/14 20:07:26.000   33.219126239  -87.535499504    33.0549   5   7   4.1537   4.0104  10.7039  -1.6174   3.8606  -3.1428   0.00    0.0
2023/07/14 20:07:27.000   33.219126253  -87.535499578    33.0378   5   7   4.1537   4.0108  10.7050  -1.6179   3.8621  -3.1445   0.00    0.0
2023/07/14 20:07:28.000   33.219126230  -87.535499548    33.0332   5   7   4.1538   4.0112  10.7061  -1.6183   3.8636  -3.1462   0.00    0.0
2023/07/14 20:07:29.000   33.219126278  -87.535499523    33.0188   5   7   4.1538   4.0117  10.7071  -1.6188   3.8651  -3.1479   0.00    0.0
2023/07/14 20:07:30.000   33.219126296  -87.535499499    33.0101   5   7   4.1539   4.0121  10.7082  -1.6192   3.8666  -3.1496   0.00    0.0
2023/07/14 20:07:31.000   33.219126344  -87.535499426    33.0020   5   7   4.1539   4.0125  10.7093  -1.6197   3.8681  -3.1513   0.00    0.0
2023/07/14 20:07:32.000   33.219126367  -87.535499403    32.9896   5   7   4.1540   4.0129  10.7104  -1.6201   3.8696  -3.1530   0.00    0.0
2023/07/14 20:07:33.000   33.219126385  -87.535499371    32.9833   5   7   4.1540   4.0133  10.7115  -1.6206   3.8710  -3.1547   0.00    0.0
2023/07/14 20:07:34.000   33.219126418  -87.535499365    32.9783   5   7   4.1541   4.0137  10.7126  -1.6210   3.8725  -3.1564   0.00    0.0
2023/07/14 20:07:35.000   33.219126496  -87.535499389    32.9827   5   7   4.1542   4.0141  10.7136  -1.6215   3.8740  -3.1581   0.00    0.0
2023/07/14 20:07:36.000   33.219126558  -87.535499346    32.9813   5   7   4.1542   4.0145  10.7147  -1.6219   3.8755  -3.1598   0.00    0.0
2023/07/14 20:07:37.000   33.219126641  -87.535499347    32.9730   5   7   4.1543   4.0149  10.7158  -1.6224   3.8770  -3.1615   0.00    0.0
2023/07/14 20:07:38.000   33.219126701  -87.535499344    32.9733   5   7   4.1543   4.0154  10.7169  -1.6228   3.8785  -3.1632   0.00    0.0
2023/07/14 20:07:39.000   33.219126785  -87.535499348    32.9755   5   7   4.1544   4.0158  10.7180  -1.6233   3.8800  -3.1649   0.00    0.0
2023/07/14 20:07:40.000   33.219126842  -87.535499343    32.9623   5   7   4.1544   4.0162  10.7190  -1.6238   3.8814  -3.1666   0.00    0.0
2023/07/14 20:07:41.000   33.219126926  -87.535499336    32.9398   5   7   4.1545   4.0166  10.7201  -1.6242   3.8829  -3.1683   0.00    0.0
2023/07/14 20:07:42.000   33.219126971  -87.535499301    32.9462   5   7   4.1545   4.0170  10.7212  -1.6247   3.8844  -3.1700   0.00    0.0
2023/07/14 20:07:43.000   33.219127034  -87.535499264    32.9548   5   7   4.1546   4.0174  10.7223  -1.6251   3.8859  -3.1717   0.00    0.0
2023/07/14 20:07:44.000   33.219127093  -87.535499351    32.9407   5   7   4.1547   4.0178  10.7234  -1.6256   3.8874  -3.1734   0.00    0.0
2023/07/14 20:07:45.000   33.219127142  -87.535499432    32.9422   5   7   4.1547   4.0182  10.7245  -1.6260   3.8889  -3.1751   0.00    0.0
2023/07/14 20:07:46.000   33.219127210  -87.535499536    32.9333   5   7   4.1548   4.0187  10.7255  -1.6265   3.8903  -3.1768   0.00    0.0
2023/07/14 20:07:47.000   33.219127255  -87.535499564    32.9403   5   7   4.1548   4.0191  10.7266  -1.6269   3.8918  -3.1784   0.00    0.0
2023/07/14 20:07:48.000   33.219127315  -87.535499629    32.9323   5   7   4.1549   4.0195  10.7277  -1.6274   3.8933  -3.1801   0.00    0.0
2023/07/14 20:07:49.000   33.219127352  -87.535499606    32.9390   5   7   4.1549   4.0199  10.7288  -1.6279   3.8948  -3.1818   0.00    0.0
2023/07/14 20:07:50.000   33.219127371  -87.535499587    32.9413   5   7   4.1550   4.0203  10.7299  -1.6283   3.8963  -3.1835   0.00    0.0
2023/07/14 20:07:51.000   33.219127374  -87.535499594    32.9413   5   7   4.1551   4.0207  10.7310  -1.6288   3.8978  -3.1852   0.00    0.0
2023/07/14 20:07:52.000   33.219127422  -87.535499579    32.9277   5   7   4.1551   4.0212  10.7320  -1.6292   3.8992  -3.1869   0.00    0.0
2023/07/14 20:07:53.000   33.219127458  -87.535499571    32.9215   5   7   4.1552   4.0216  10.7331  -1.6297   3.9007  -3.1886   0.00    0.0
2023/07/14 20:07:54.000   33.219127495  -87.535499567    32.9153   5   7   4.1552   4.0220  10.7342  -1.6301   3.9022  -3.1902   0.00    0.0
2023/07/14 20:07:55.000   33.219127524  -87.535499599    32.9192   5   7   4.1553   4.0224  10.7353  -1.6306   3.9037  -3.1919   0.00    0.0
2023/07/14 20:07:56.000   33.219127555  -87.535499629    32.9247   5   7   4.1554   4.0228  10.7364  -1.6311   3.9052  -3.1936   0.00    0.0
2023/07/14 20:07:57.000   33.219127607  -87.535499654    32.9323   5   7   4.1554   4.0232  10.7375  -1.6315   3.9066  -3.1953   0.00    0.0
2023/07/14 20:07:58.000   33.219127648  -87.535499628    32.9624   5   7   4.1555   4.0237  10.7386  -1.6320   3.9081  -3.1970   0.00    0.0
2023/07/14 20:07:59.000   33.219127645  -87.535499626    32.9748   5   7   4.1555   4.0241  10.7396  -1.6324   3.9096  -3.1986   0.00    0.0
2023/07/14 20:08:00.000   33.219127662  -87.535499634    32.9786   5   7   4.1556   4.0245  10.7407  -1.6329   3.9111  -3.2003   0.00    0.0
2023/07/14 20:08:01.000   33.219127703  -87.535498949    32.9944   5   7   4.1557   4.0249  10.7418  -1.6333   3.9126  -3.2020   0.00    0.0
2023/07/14 20:08:02.000   33.219127525  -87.535496109    32.9964   5   7   4.1557   4.0253  10.7429  -1.6338   3.9140  -3.2037   0.00    0.0
2023/07/14 20:08:03.000   33.219127253  -87.535491863    33.0084   5   7   4.1558   4.0257  10.7440  -1.6343   3.9155  -3.2053   0.00    0.0
2023/07/14 20:08:04.000   33.219126790  -87.535487125    33.0113   5   7   4.1559   4.0262  10.7451  -1.6347   3.9170  -3.2070   0.00    0.0
2023/07/14 20:08:05.000   33.219126379  -87.535481933    33.0403   5   7   4.1559   4.0266  10.7461  -1.6352   3.9185  -3.2087   0.00    0.0
2023/07/14 20:08:06.000   33.219125932  -87.535476485    33.0388   5   7   4.1560   4.0270  10.7472  -1.6356   3.9199  -3.2104   0.00    0.0
2023/07/14 20:08:07.000   33.219126242  -87.535469639    33.0532   5   7   4.1560   4.0274  10.7483  -1.6361   3.9214  -3.2120   0.00    0.0
2023/07/14 20:08:08.000   33.219127780  -87.535462124    33.0568   5   7   4.1561   4.0278  10.7494  -1.6366   3.9229  -3.2137   0.00    0.0
2023/07/14 20:08:09.000   33.219130105  -87.535454970    33.0521   5   7   4.1562   4.0283  10.7505  -1.6370   3.9244  -3.2154   0.00    0.0
2023/07/14 20:08:10.000   33.219131629  -87.535451917    33.0269   5   7   4.1562   4.0287  10.7516  -1.6375   3.9259  -3.2170   0.00    0.0
2023/07/14 20:08:11.000   33.219131532  -87.535451818    33.0323   5   7   4.1563   4.0291  10.7527  -1.6380   3.9273  -3.2187   0.00    0.0
2023/07/14 20:08:12.000   33.219131565  -87.535452020    33.0355   5   7   4.1564   4.0295  10.7537  -1.6384   3.9288  -3.2204   0.00    0.0
2023/07/14 20:08:13.000   33.219131377  -87.535452242    33.0371   5   7   4.1564   4.0299  10.7548  -1.6389   3.9303  -3.2220   0.00    0.0
2023/07/14 20:08:14.000   33.219129056  -87.535453552    33.0171   5   7   4.1565   4.0304  10.7559  -1.6393   3.9318  -3.2237   0.00    0.0
2023/07/14 20:08:15.000   33.219120069  -87.535456824    33.0619   5   7   4.1566   4.0308  10.7570  -1.6398   3.9332  -3.2253   0.00    0.0
2023/07/14 20:08:16.000   33.219111117  -87.535457832    33.1477   5   7   4.1566   4.0312  10.7581  -1.6403   3.9347  -3.2270   0.00    0.0
2023/07/14 20:08:17.000   33.219101416  -87.535457197    33.2083   5   7   4.1567   4.0316  10.7592  -1.6407   3.9362  -3.2287   0.00    0.0
2023/07/14 20:08:18.000   33.219088228  -87.535454906    33.2896   5   7   4.1568   4.0320  10.7603  -1.6412   3.9377  -3.2303   0.00    0.0
2023/07/14 20:08:19.000   33.219071460  -87.535451505    33.3998   5   7   4.1568   4.0325  10.7613  -1.6417   3.9391  -3.2320   0.00    0.0
2023/07/14 20:08:20.000   33.219051914  -87.535447988    33.5217   5   7   4.1569   4.0329  10.7624  -1.6421   3.9406  -3.2336   0.00    0.0
2023/07/14 20:08:21.000   33.219030012  -87.535445426    33.6445   5   7   4.1570   4.0333  10.7635  -1.6426   3.9421  -3.2353   0.00    0.0
2023/07/14 20:08:22.000   33.219007032  -87.535443187    33.7679   5   7   4.1570   4.0337  10.7646  -1.6430   3.9436  -3.2369   0.00    0.0
2023/07/14 20:08:23.000   33.218982216  -87.535439203    33.9179   5   7   4.1571   4.0342  10.7657  -1.6435   3.9450  -3.2386   0.00    0.0
2023/07/14 20:08:24.000   33.218959351  -87.535429115    34.0405   5   7   4.1572   4.0346  10.7668  -1.6440   3.9465  -3.2402   0.00    0.0
2023/07/14 20:08:25.000   33.218940383  -87.535409647    34.1421   5   7   4.1572   4.0350  10.7679  -1.6444   3.9480  -3.2419   0.00    0.0
2023/07/14 20:08:26.000   33.218927880  -87.535381610    34.2020   5   7   4.1573   4.0354  10.7690  -1.6449   3.9495  -3.2435   0.00    0.0
2023/07/14 20:08:27.000   33.218921314  -87.535347537    34.2228   5   7   4.1574   4.0359  10.7700  -1.6454   3.9509  -3.2452   0.00    0.0
2023/07/14 20:08:28.000   33.218917916  -87.535310795    34.2099   5   7   4.1574   4.0363  10.7711  -1.6458   3.9524  -3.2468   0.00    0.0
2023/07/14 20:08:29.000   33.218915259  -87.535270705    34.1799   5   7   4.1575   4.0367  10.7722  -1.6463   3.9538  -3.2485   0.00    0.0
2023/07/14 20:08:30.000   33.218912162  -87.535225360    34.1596   5   7   4.1576   4.0371  10.7733  -1.6467   3.9553  -3.2501   0.00    0.0
2023/07/14 20:08:31.000   33.218909702  -87.535177512    34.1963   5   7   4.1576   4.0375  10.7744  -1.6472   3.9568  -3.2518   0.00    0.0
2023/07/14 20:08:32.000   33.218908068  -87.535126573    34.2771   5   7   4.1577   4.0380  10.7755  -1.6477   3.9582  -3.2534   0.00    0.0
2023/07/14 20:08:33.000   33.218907444  -87.535075569    34.3501   5   7   4.1578   4.0384  10.7766  -1.6481   3.9597  -3.2551   0.00    0.0
2023/07/14 20:08:34.000   33.218907539  -87.535026662    34.4259   5   7   4.1579   4.0388  10.7776  -1.6486   3.9612  -3.2567   0.00    0.0
2023/07/14 20:08:35.000   33.218907827  -87.534982623    34.4706   5   7   4.1579   4.0392  10.7787  -1.6491   3.9626  -3.2584   0.00    0.0
2023/07/14 20:08:36.000   33.218907918  -87.534950372    34.4908   5   7   4.1580   4.0397  10.7798  -1.6495   3.9641  -3.2600   0.00    0.0
2023/07/14 20:08:37.000   33.218908107  -87.534930538    34.4970   5   7   4.1581   4.0401  10.7809  -1.6500   3.9656  -3.2616   0.00    0.0
2023/07/14 20:08:38.000   33.218908079  -87.534912969    34.5153   5   7   4.1581   4.0405  10.7820  -1.6505   3.9670  -3.2633   0.00    0.0
2023/07/14 20:08:39.000   33.218907397  -87.534895202    34.5274   5   7   4.1582   4.0409  10.7831  -1.6509   3.9685  -3.2649   0.00    0.0
2023/07/14 20:08:40.000   33.218905709  -87.534877814    34.5481   5   7   4.1583   4.0414  10.7842  -1.6514   3.9700  -3.2666   0.00    0.0
2023/07/14 20:08:41.000   33.218902729  -87.534860960    34.5799   5   7   4.1584   4.0418  10.7852  -1.6519   3.9714  -3.2682   0.00    0.0
2023/07/14 20:08:42.000   33.218897659  -87.534845321    34.6387   5   7   4.1584   4.0422  10.7863  -1.6524   3.9729  -3.2698   0.00    0.0
2023/07/14 20:08:43.000   33.218890832  -87.534833853    34.6517   5   7   4.1585   4.0426  10.7874  -1.6528   3.9744  -3.2715   0.00    0.0
2023/07/14 20:08:44.000   33.218880017  -87.534824359    34.6674   5   7   4.1586   4.0431  10.7885  -1.6533   3.9758  -3.2731   0.00    0.0
2023/07/14 20:08:45.000   33.218862221  -87.534815511    34.7240   5   7   4.1586   4.0435  10.7896  -1.6538   3.9773  -3.2747   0.00    0.0
2023/07/14 20:08:46.000   33.218837941  -87.534811633    34.7756   5   7   4.1587   4.0439  10.7907  -1.6542   3.9788  -3.2764   0.00    0.0
2023/07/14 20:08:47.000   33.218806126  -87.534809443    34.8607   5   7   4.1588   4.0444  10.7918  -1.6547   3.9802  -3.2780   0.00    0.0
2023/07/14 20:08:48.000   33.218767440  -87.534808598    34.9376   5   7   4.1589   4.0448  10.7929  -1.6552   3.9817  -3.2796   0.00    0.0
2023/07/14 20:08:49.000   33.218725882  -87.534808994    35.0237   5   7   4.1589   4.0452  10.7940  -1.6556   3.9832  -3.2812   0.00    0.0
2023/07/14 20:08:50.000   33.218682302  -87.534806963    35.1872   5   7   4.1590   4.0456  10.7950  -1.6561   3.9846  -3.2829   0.00    0.0
2023/07/14 20:08:51.000   33.218637269  -87.534799723    35.3694   5   7   4.1591   4.0461  10.7961  -1.6566   3.9861  -3.2845   0.00    0.0
2023/07/14 20:08:52.000   33.218593847  -87.534788147    35.4998   5   7   4.1592   4.0465  10.7972  -1.6570   3.9876  -3.2861   0.00    0.0
2023/07/14 20:08:53.000   33.218553523  -87.534774546    35.5817   5   7   4.1592   4.0469  10.7983  -1.6575   3.9890  -3.2877   0.00    0.0
2023/07/14 20:08:54.000   33.218519781  -87.534762563    35.6203   5   7   4.1593   4.0474  10.7994  -1.6580   3.9905  -3.2893   0.00    0.0
2023/07/14 20:08:55.000   33.218498130  -87.534754492    35.6297   5   7   4.1594   4.0478  10.8005  -1.6584   3.9920  -3.2909   0.00    0.0
2023/07/14 20:08:56.000   33.218486365  -87.534750019    35.6311   5   7   4.1594   4.0482  10.8016  -1.6589   3.9934  -3.2926   0.00    0.0
2023/07/14 20:08:57.000   33.218474072  -87.534746114    35.6353   5   7   4.1595   4.0487  10.8027  -1.6594   3.9949  -3.2942   0.00    0.0
2023/07/14 20:08:58.000   33.218456070  -87.534743517    35.6812   5   7   4.1596   4.0491  10.8038  -1.6598   3.9964  -3.2958   0.00    0.0
2023/07/14 20:08:59.000   33.218427628  -87.534749581    35.7586   5   7   4.1597   4.0495  10.8049  -1.6603   3.9978  -3.2974   0.00    0.0
2023/07/14 20:09:00.000   33.218397515  -87.534775267    35.8004   5   7   4.1598   4.0500  10.8059  -1.6608   3.9993  -3.2990   0.00    0.0
2023/07/14 20:09:01.000   33.218380052  -87.534821949    35.8115   5   7   4.1598   4.0504  10.8070  -1.6613   4.0008  -3.3006   0.00    0.0
2023/07/14 20:09:02.000   33.218378286  -87.534884164    35.8058   5   7   4.1599   4.0508  10.8081  -1.6617   4.0022  -3.3023   0.00    0.0
2023/07/14 20:09:03.000   33.218381258  -87.534960246    35.8492   5   7   4.1600   4.0513  10.8092  -1.6622   4.0037  -3.3039   0.00    0.0
2023/07/14 20:09:04.000   33.218382028  -87.535043707    36.0061   5   7   4.1601   4.0517  10.8103  -1.6627   4.0052  -3.3055   0.00    0.0
2023/07/14 20:09:05.000   33.218381596  -87.535124578    36.1665   5   7   4.1601   4.0521  10.8114  -1.6632   4.0067  -3.3071   0.00    0.0
2023/07/14 20:09:06.000   33.218379953  -87.535198532    36.3169   5   7   4.1602   4.0526  10.8125  -1.6636   4.0081  -3.3087   0.00    0.0
2023/07/14 20:09:07.000   33.218370777  -87.535262816    36.3440   5   7   4.1603   4.0530  10.8136  -1.6641   4.0096  -3.3103   0.00    0.0
2023/07/14 20:09:08.000   33.218348328  -87.535313621    36.2695   5   7   4.1604   4.0535  10.8147  -1.6646   4.0111  -3.3119   0.00    0.0
2023/07/14 20:09:09.000   33.218315592  -87.535348288    36.2157   5   7   4.1605   4.0539  10.8158  -1.6651   4.0126  -3.3135   0.00    0.0
2023/07/14 20:09:10.000   33.218285546  -87.535365030    36.1683   5   7   4.1605   4.0543  10.8168  -1.6655   4.0140  -3.3151   0.00    0.0
2023/07/14 20:09:11.000   33.218268284  -87.535371280    36.1090   5   7   4.1606   4.0548  10.8179  -1.6660   4.0155  -3.3167   0.00    0.0
2023/07/14 20:09:12.000   33.218256775  -87.535375152    36.0945   5   7   4.1607   4.0552  10.8190  -1.6665   4.0170  -3.3184   0.00    0.0
2023/07/14 20:09:13.000   33.218240630  -87.535379976    36.0883   5   7   4.1608   4.0556  10.8201  -1.6670   4.0184  -3.3200   0.00    0.0
2023/07/14 20:09:14.000   33.218206530  -87.535386287    36.0623   5   7   4.1609   4.0561  10.8212  -1.6674   4.0199  -3.3216   0.00    0.0
2023/07/14 20:09:15.000   33.218158615  -87.535383092    36.0886   5   7   4.1609   4.0565  10.8223  -1.6679   4.0213  -3.3232   0.00    0.0
2023/07/14 20:09:16.000   33.218106039  -87.535358759    36.1508   5   7   4.1610   4.0570  10.8234  -1.6684   4.0228  -3.3247   0.00    0.0
2023/07/14 20:09:17.000   33.218056515  -87.535308577    36.1451   5   7   4.1611   4.0574  10.8245  -1.6688   4.0243  -3.3263   0.00    0.0
2023/07/14 20:09:18.000   33.218014408  -87.535236114    36.0767   5   7   4.1612   4.0578  10.8256  -1.6693   4.0257  -3.3279   0.00    0.0
2023/07/14 20:09:19.000   33.217978878  -87.535150111    35.9469   5   7   4.1612   4.0583  10.8267  -1.6698   4.0271  -3.3295   0.00    0.0
2023/07/14 20:09:20.000   33.217941020  -87.535057928    35.8329   5   7   4.1613   4.0587  10.8277  -1.6703   4.0286  -3.3311   0.00    0.0
2023/07/14 20:09:21.000   33.217896878  -87.534966271    35.7471   5   7   4.1614   4.0591  10.8288  -1.6707   4.0300  -3.3327   0.00    0.0
2023/07/14 20:09:22.000   33.217846581  -87.534876864    35.6788   5   7   4.1615   4.0596  10.8299  -1.6712   4.0315  -3.3343   0.00    0.0
2023/07/14 20:09:23.000   33.217788803  -87.534789280    35.7671   5   7   4.1616   4.0600  10.8310  -1.6717   4.0329  -3.3359   0.00    0.0
2023/07/14 20:09:24.000   33.217723111  -87.534706161    36.5060   5   6   4.4655   4.3434  12.7424  -0.5468   2.4346  -4.6909   0.00    0.0
2023/07/14 20:09:25.000   33.217652206  -87.534626416    36.6963   5   7   4.1617   4.0609  10.8332  -1.6726   4.0358  -3.3391   0.00    0.0
2023/07/14 20:09:26.000   33.217576025  -87.534552003    36.6213   5   7   4.1618   4.0613  10.8343  -1.6731   4.0373  -3.3407   0.00    0.0
2023/07/14 20:09:27.000   33.217496123  -87.534481337    37.0045   5   7   4.1619   4.0617  10.8354  -1.6735   4.0387  -3.3422   0.00    0.0
2023/07/14 20:09:28.000   33.217417270  -87.534408992    37.3987   5   6   4.4661   4.3444  12.7489  -0.5544   2.4452  -4.6968   0.00    0.0
2023/07/14 20:09:29.000   33.217341787  -87.534333450    37.6585   5   6   4.4662   4.3446  12.7505  -0.5563   2.4478  -4.6983   0.00    0.0
2023/07/14 20:09:30.000   33.217268705  -87.534255298    37.9252   5   6   4.4664   4.3448  12.7521  -0.5582   2.4505  -4.6998   0.00    0.0
2023/07/14 20:09:31.000   33.217198048  -87.534172695    38.1821   5   6   4.4665   4.3451  12.7537  -0.5601   2.4531  -4.7012   0.00    0.0
2023/07/14 20:09:32.000   33.217130023  -87.534085789    38.4727   5   6   4.4666   4.3453  12.7553  -0.5620   2.4558  -4.7027   0.00    0.0
2023/07/14 20:09:33.000   33.217065717  -87.533993798    38.4309   5   7   4.1624   4.0644  10.8419  -1.6764   4.0474  -3.3517   0.00    0.0
2023/07/14 20:09:34.000   33.217004132  -87.533898384    38.6229   5   7   4.1625   4.0648  10.8430  -1.6768   4.0488  -3.3533   0.00    0.0
2023/07/14 20:09:35.000   33.216945712  -87.533801593    38.7832   5   7   4.1625   4.0652  10.8441  -1.6773   4.0503  -3.3549   0.00    0.0
2023/07/14 20:09:36.000   33.216890464  -87.533704276    38.8823   5   7   4.1626   4.0657  10.8452  -1.6778   4.0517  -3.3564   0.00    0.0
2023/07/14 20:09:37.000   33.216839639  -87.533603868    38.8151   5   7   4.1627   4.0661  10.8463  -1.6783   4.0531  -3.3580   0.00    0.0
2023/07/14 20:09:38.000   33.216791278  -87.533501710    39.2445   5   6   4.4675   4.3467  12.7650  -0.5731   2.4715  -4.7116   0.00    0.0
2023/07/14 20:09:39.000   33.216747260  -87.533395317    39.1136   5   6   4.4676   4.3470  12.7666  -0.5749   2.4741  -4.7130   0.00    0.0
2023/07/14 20:09:40.000   33.216707848  -87.533283683    38.2636   5   7   4.1630   4.0674  10.8496  -1.6797   4.0574  -3.3628   0.00    0.0
2023/07/14 20:09:41.000   33.216670106  -87.533169908    38.3213   5   7   4.1630   4.0679  10.8507  -1.6802   4.0589  -3.3643   0.00    0.0
2023/07/14 20:09:42.000   33.216636966  -87.533051564    37.7787   5   7   4.1631   4.0683  10.8517  -1.6806   4.0603  -3.3659   0.00    0.0
2023/07/14 20:09:43.000   33.216601853  -87.532934506    38.0225   5   6   4.4682   4.3479  12.7730  -0.5822   2.4846  -4.7189   0.00    0.0
2023/07/14 20:09:44.000   33.216564400  -87.532816644    37.1614   5   7   4.1633   4.0692  10.8539  -1.6816   4.0632  -3.3691   0.00    0.0
2023/07/14 20:09:45.000   33.216515519  -87.532705662    37.0583   5   7   4.1634   4.0696  10.8550  -1.6821   4.0646  -3.3706   0.00    0.0
2023/07/14 20:09:46.000   33.216455891  -87.532601404    36.5423   5   7   4.1635   4.0700  10.8561  -1.6825   4.0660  -3.3722   0.00    0.0
2023/07/14 20:09:47.000   33.216386322  -87.532505640    36.3046   5   7   4.1636   4.0705  10.8572  -1.6830   4.0675  -3.3738   0.00    0.0
2023/07/14 20:09:48.000   33.216307109  -87.532420206    36.3750   5   7   4.1636   4.0709  10.8583  -1.6835   4.0689  -3.3753   0.00    0.0
2023/07/14 20:09:49.000   33.216220253  -87.532345802    36.4154   5   7   4.1637   4.0714  10.8594  -1.6839   4.0704  -3.3769   0.00    0.0
2023/07/14 20:09:50.000   33.216129188  -87.532281547    35.6493   5   7   4.1638   4.0718  10.8605  -1.6844   4.0718  -3.3784   0.00    0.0
2023/07/14 20:09:51.000   33.216033230  -87.532228912    35.4633   5   7   4.1639   4.0723  10.8616  -1.6849   4.0733  -3.3800   0.00    0.0
2023/07/14 20:09:52.000   33.215934959  -87.532181726    35.6579   5   7   4.1640   4.0727  10.8627  -1.6854   4.0747  -3.3815   0.00    0.0
2023/07/14 20:09:53.000   33.215835772  -87.532135546    36.2140   5   7   4.1641   4.0731  10.8638  -1.6858   4.0761  -3.3831   0.00    0.0
2023/07/14 20:09:54.000   33.215737181  -87.532088581    36.6341   5   7   4.1641   4.0736  10.8649  -1.6863   4.0776  -3.3846   0.00    0.0
2023/07/14 20:09:55.000   33.215639005  -87.532040163    36.7698   5   7   4.1642   4.0740  10.8660  -1.6868   4.0790  -3.3862   0.00    0.0
2023/07/14 20:09:56.000   33.215541628  -87.531990609    36.4393   5   7   4.1643   4.0745  10.8671  -1.6873   4.0805  -3.3877   0.00    0.0
2023/07/14 20:09:57.000   33.215443652  -87.531943714    36.9106   5   7   4.1644   4.0749  10.8682  -1.6877   4.0819  -3.3893   0.00    0.0
2023/07/14 20:09:58.000   33.215348538  -87.531895979    37.1927   5   7   4.1645   4.0754  10.8693  -1.6882   4.0834  -3.3908   0.00    0.0
2023/07/14 20:09:59.000   33.215257328  -87.531844663    37.4194   5   7   4.1646   4.0758  10.8703  -1.6887   4.0848  -3.3924   0.00    0.0
2023/07/14 20:10:00.000   33.215169728  -87.531790648    37.7393   5   7   4.1647   4.0763  10.8714  -1.6892   4.0863  -3.3939   0.00    0.0
2023/07/14 20:10:01.000   33.215084203  -87.531737657    38.0505   5   7   4.1647   4.0767  10.8725  -1.6896   4.0877  -3.3955   0.00    0.0
2023/07/14 20:10:02.000   33.214999730  -87.531689425    38.3681   5   7   4.1648   4.0772  10.8736  -1.6901   4.0891  -3.3970   0.00    0.0
2023/07/14 20:10:03.000   33.214917070  -87.531646300    38.4905   5   7   4.1649   4.0776  10.8747  -1.6906   4.0906  -3.3986   0.00    0.0
2023/07/14 20:10:04.000   33.214838560  -87.531606957    38.6296   5   7   4.1650   4.0781  10.8758  -1.6911   4.0920  -3.4001   0.00    0.0
2023/07/14 20:10:05.000   33.214767596  -87.531571243    38.8257   5   7   4.1651   4.0785  10.8769  -1.6915   4.0935  -3.4017   0.00    0.0
2023/07/14 20:10:06.000   33.214704686  -87.531542733    39.6054   5   6   4.4715   4.3535  12.8101  -0.6230   2.5446  -4.7524   0.00    0.0
2023/07/14 20:10:07.000   33.214654105  -87.531519141    39.8487   5   7   4.1653   4.0794  10.8791  -1.6925   4.0964  -3.4048   0.00    0.0
2023/07/14 20:10:08.000   33.214618226  -87.531499040    39.0251   5   7   4.1654   4.0799  10.8802  -1.6930   4.0978  -3.4063   0.00    0.0
2023/07/14 20:10:09.000   33.214593513  -87.531487009    38.9953   5   7   4.1655   4.0803  10.8813  -1.6935   4.0992  -3.4079   0.00    0.0
2023/07/14 20:10:10.000   33.214580831  -87.531481403    39.1816   5   7   4.1656   4.0807  10.8824  -1.6939   4.1007  -3.4094   0.00    0.0
2023/07/14 20:10:11.000   33.214576552  -87.531480404    39.5285   5   7   4.1657   4.0812  10.8834  -1.6944   4.1021  -3.4110   0.00    0.0
2023/07/14 20:10:12.000   33.214576453  -87.531480491    39.5544   5   7   4.1657   4.0816  10.8845  -1.6949   4.1036  -3.4125   0.00    0.0
2023/07/14 20:10:13.000   33.214576851  -87.531479935    39.3760   5   7   4.1658   4.0821  10.8856  -1.6954   4.1050  -3.4141   0.00    0.0
2023/07/14 20:10:14.000   33.214577628  -87.531479102    39.0081   5   7   4.1659   4.0825  10.8867  -1.6959   4.1065  -3.4156   0.00    0.0
2023/07/14 20:10:15.000   33.214576531  -87.531480387    39.5138   5   7   4.1660   4.0830  10.8878  -1.6964   4.1079  -3.4172   0.00    0.0
2023/07/14 20:10:16.000   33.214576443  -87.531480495    39.5548   5   7   4.1661   4.0834  10.8888  -1.6969   4.1093  -3.4187   0.00    0.0
2023/07/14 20:10:17.000   33.214576687  -87.531480307    39.4478   5   7   4.1662   4.0839  10.8899  -1.6974   4.1108  -3.4203   0.00    0.0
2023/07/14 20:10:18.000   33.214577100  -87.531479800    39.2733   5   7   4.1663   4.0843  10.8910  -1.6978   4.1122  -3.4218   0.00    0.0
2023/07/14 20:10:19.000   33.214577143  -87.531479731    39.2652   5   7   4.1664   4.0848  10.8921  -1.6983   4.1137  -3.4234   0.00    0.0
2023/07/14 20:10:20.000   33.214577293  -87.531479442    39.1905   5   7   4.1665   4.0852  10.8932  -1.6988   4.1151  -3.4249   0.00    0.0
2023/07/14 20:10:21.000   33.214577864  -87.531478609    38.8644   5   7   4.1666   4.0857  10.8943  -1.6993   4.1166  -3.4265   0.00    0.0
2023/07/14 20:10:22.000   33.214573806  -87.531477362    39.0669   5   7   4.1667   4.0861  10.8953  -1.6998   4.1180  -3.4280   0.00    0.0
2023/07/14 20:10:23.000   33.214553586  -87.531467371    39.1579   5   7   4.1668   4.0866  10.8964  -1.7003   4.1194  -3.4295   0.00    0.0
2023/07/14 20:10:24.000   33.214520912  -87.531446150    39.2221   5   7   4.1669   4.0870  10.8975  -1.7008   4.1209  -3.4311   0.00    0.0
2023/07/14 20:10:25.000   33.214484153  -87.531409495    39.2816   5   7   4.1670   4.0875  10.8986  -1.7012   4.1223  -3.4326   0.00    0.0
2023/07/14 20:10:26.000   33.214452714  -87.531355268    39.7480   5   7   4.1671   4.0879  10.8997  -1.7017   4.1237  -3.4342   0.00    0.0
2023/07/14 20:10:27.000   33.214437975  -87.531285180    39.8590   5   7   4.1672   4.0884  10.9008  -1.7022   4.1252  -3.4357   0.00    0.0
2023/07/14 20:10:28.000   33.214443704  -87.531208297    39.8425   5   7   4.1673   4.0888  10.9018  -1.7027   4.1266  -3.4372   0.00    0.0
2023/07/14 20:10:29.000   33.214464768  -87.531128060    39.8162   5   7   4.1674   4.0893  10.9029  -1.7032   4.1280  -3.4388   0.00    0.0
2023/07/14 20:10:30.000   33.214496600  -87.531043481    39.8661   5   7   4.1675   4.0897  10.9040  -1.7037   4.1294  -3.4403   0.00    0.0
2023/07/14 20:10:31.000   33.214533742  -87.530950651    39.9127   5   7   4.1676   4.0902  10.9051  -1.7042   4.1308  -3.4419   0.00    0.0
2023/07/14 20:10:32.000   33.214574681  -87.530848724    39.7048   5   7   4.1677   4.0906  10.9061  -1.7047   4.1323  -3.4434   0.00    0.0
2023/07/14 20:10:33.000   33.214616451  -87.530739623    39.5682   5   7   4.1678   4.0910  10.9072  -1.7052   4.1337  -3.4450   0.00    0.0
2023/07/14 20:10:34.000   33.214660017  -87.530625084    39.4446   5   7   4.1679   4.0915  10.9083  -1.7056   4.1351  -3.4465   0.00    0.0
2023/07/14 20:10:35.000   33.214706569  -87.530505989    39.3601   5   7   4.1680   4.0919  10.9093  -1.7061   4.1365  -3.4481   0.00    0.0
2023/07/14 20:10:36.000   33.214754684  -87.530383235    39.3365   5   7   4.1681   4.0924  10.9104  -1.7066   4.1379  -3.4496   0.00    0.0
2023/07/14 20:10:37.000   33.214806945  -87.530259333    39.9337   5   6   4.9369   4.2088  11.8505  -2.3473   3.5493   0.5663   0.00    0.0
2023/07/14 20:10:38.000   33.214857063  -87.530132324    40.1705   5   6   4.9368   4.2093  11.8500  -2.3478   3.5513   0.5463   0.00    0.0
2023/07/14 20:10:39.000   33.214907687  -87.530003935    40.4124   5   6   4.9368   4.2098  11.8494  -2.3483   3.5534   0.5256   0.00    0.0
2023/07/14 20:10:40.000   33.214956014  -87.529874295    40.2964   5   7   4.1685   4.0941  10.9147  -1.7086   4.1436  -3.4558   0.00    0.0
2023/07/14 20:10:41.000   33.215006544  -87.529745583    40.7455   5   7   4.1686   4.0946  10.9157  -1.7091   4.1450  -3.4573   0.00    0.0
2023/07/14 20:10:42.000   33.215054735  -87.529616175    41.0331   5   7   4.1687   4.0950  10.9168  -1.7096   4.1464  -3.4589   0.00    0.0
2023/07/14 20:10:43.000   33.215103860  -87.529486391    41.3487   5   7   4.1688   4.0955  10.9179  -1.7101   4.1478  -3.4604   0.00    0.0
2023/07/14 20:10:44.000   33.215153920  -87.529353413    41.6655   5   7   4.1689   4.0959  10.9190  -1.7106   4.1492  -3.4619   0.00    0.0
2023/07/14 20:10:45.000   33.215204316  -87.529217604    41.9535   5   7   4.1690   4.0963  10.9200  -1.7111   4.1506  -3.4635   0.00    0.0
2023/07/14 20:10:46.000   33.215255789  -87.529080355    42.5084   5   7   4.1691   4.0968  10.9211  -1.7115   4.1520  -3.4650   0.00    0.0
2023/07/14 20:10:47.000   33.215307346  -87.528941521    43.1360   5   7   4.1692   4.0972  10.9222  -1.7120   4.1534  -3.4666   0.00    0.0
2023/07/14 20:10:48.000   33.215358268  -87.528800948    43.5458   5   7   4.1693   4.0977  10.9232  -1.7125   4.1548  -3.4681   0.00    0.0
2023/07/14 20:10:52.000   33.215557086  -87.528236816    43.6635   5   7   4.1698   4.0994  10.9275  -1.7145   4.1604  -3.4742   0.00    0.0
2023/07/14 20:10:53.000   33.215603464  -87.528098992    44.6571   5   7   4.1699   4.0999  10.9285  -1.7150   4.1618  -3.4758   0.00    0.0
2023/07/14 20:10:54.000   33.215651569  -87.527960258    45.0781   5   6   4.5633   6.6704  13.3441  -3.5629   7.5902  -5.1264   0.00    0.0
2023/07/14 20:10:55.000   33.215699605  -87.527833149    44.7541   5   6   4.5638   6.6720  13.3465  -3.5644   7.5927  -5.1288   0.00    0.0
2023/07/14 20:10:56.000   33.215742681  -87.527690804    46.4773   5   7   4.1702   4.1012  10.9317  -1.7165   4.1660  -3.4803   0.00    0.0
2023/07/14 20:10:57.000   33.215789704  -87.527555091    46.9129   5   7   4.1703   4.1017  10.9328  -1.7170   4.1674  -3.4819   0.00    0.0
2023/07/14 20:10:58.000   33.215836711  -87.527418758    47.5287   5   7   4.1704   4.1021  10.9339  -1.7175   4.1688  -3.4834   0.00    0.0
2023/07/14 20:10:59.000   33.215885987  -87.527283459    47.5490   5   7   4.1705   4.1026  10.9349  -1.7180   4.1702  -3.4849   0.00    0.0
2023/07/14 20:11:00.000   33.215937088  -87.527147936    47.9404   5   7   4.1706   4.1030  10.9360  -1.7185   4.1716  -3.4865   0.00    0.0
2023/07/14 20:11:01.000   33.215982765  -87.527009444    47.5620   5   7   4.1707   4.1034  10.9371  -1.7190   4.1730  -3.4880   0.00    0.0
2023/07/14 20:11:02.000   33.216029406  -87.526871627    47.8923   5   7   4.1708   4.1039  10.9381  -1.7194   4.1744  -3.4895   0.00    0.0
2023/07/14 20:11:03.000   33.216072283  -87.526728437    48.5817   5   7   4.1709   4.1043  10.9392  -1.7199   4.1758  -3.4910   0.00    0.0
2023/07/14 20:11:04.000   33.216106267  -87.526582085    49.1070   5   7   4.1710   4.1048  10.9403  -1.7204   4.1772  -3.4925   0.00    0.0
2023/07/14 20:11:05.000   33.216134789  -87.526438214    49.4505   5   7   4.1712   4.1052  10.9413  -1.7209   4.1786  -3.4941   0.00    0.0
2023/07/14 20:11:06.000   33.216159448  -87.526296039    50.4639   5   7   4.1713   4.1057  10.9424  -1.7214   4.1800  -3.4956   0.00    0.0
2023/07/14 20:11:07.000   33.216171172  -87.526147829    50.6121   5   7   4.1714   4.1061  10.9435  -1.7219   4.1814  -3.4971   0.00    0.0
2023/07/14 20:11:08.000   33.216180040  -87.526000247    50.4275   5   7   4.1715   4.1066  10.9445  -1.7224   4.1828  -3.4986   0.00    0.0
2023/07/14 20:11:09.000   33.216182218  -87.525851542    51.8952   5   6   4.4817   4.3691  12.9094  -0.7259   2.7032  -4.8439   0.00    0.0
2023/07/14 20:11:10.000   33.216180183  -87.525699364    52.7002   5   6   4.4819   4.3693  12.9109  -0.7274   2.7057  -4.8453   0.00    0.0
2023/07/14 20:11:11.000   33.216183573  -87.525537638    51.4191   5   5   6.6229   6.1926  17.4554   4.5677  -6.6488  -8.9867   0.00    0.0
2023/07/14 20:11:12.000   33.216182620  -87.525373390    49.8305   5   5   6.6247   6.1924  17.4624   4.5683  -6.6502  -8.9913   0.00    0.0
2023/07/14 20:11:13.000   33.216170071  -87.525225115    51.7290   5   7   4.1720   4.1088  10.9499  -1.7249   4.1898  -3.5061   0.00    0.0
2023/07/14 20:11:14.000   33.216167050  -87.525066213    52.6366   5   7   4.1721   4.1093  10.9509  -1.7253   4.1912  -3.5076   0.00    0.0
2023/07/14 20:11:15.000   33.216164774  -87.524908123    53.6390   5   6   4.4827   4.3706  12.9187  -0.7350   2.7179  -4.8524   0.00    0.0
2023/07/14 20:11:16.000   33.216163003  -87.524754273    55.0564   5   6   4.4829   4.3709  12.9203  -0.7365   2.7203  -4.8538   0.00    0.0
2023/07/14 20:11:17.000   33.216168473  -87.524599661    54.8392   5   7   4.1724   4.1106  10.9541  -1.7268   4.1954  -3.5121   0.00    0.0
2023/07/14 20:11:18.000   33.216172935  -87.524459895    54.9532   5   7   4.1725   4.1111  10.9552  -1.7273   4.1968  -3.5136   0.00    0.0
2023/07/14 20:11:19.000   33.216177556  -87.524338114    55.4445   5   7   4.1727   4.1115  10.9563  -1.7278   4.1982  -3.5151   0.00    0.0
2023/07/14 20:11:20.000   33.216179046  -87.524240101    55.6460   5   7   4.1728   4.1120  10.9573  -1.7283   4.1996  -3.5166   0.00    0.0
2023/07/14 20:11:21.000   33.216173328  -87.524167307    56.2831   5   7   4.1729   4.1124  10.9584  -1.7288   4.2010  -3.5181   0.00    0.0
2023/07/14 20:11:22.000   33.216161404  -87.524115317    56.2339   5   7   4.1730   4.1129  10.9595  -1.7293   4.2024  -3.5196   0.00    0.0
2023/07/14 20:11:23.000   33.216138664  -87.524077476    56.5458   5   7   4.1731   4.1134  10.9606  -1.7298   4.2039  -3.5211   0.00    0.0
2023/07/14 20:11:24.000   33.216106805  -87.524046528    56.8697   5   7   4.1732   4.1138  10.9616  -1.7303   4.2053  -3.5225   0.00    0.0
2023/07/14 20:11:25.000   33.216066041  -87.524024259    57.9895   5   6   4.9351   4.2329  11.8260  -2.3700   3.6445  -0.8574   0.00    0.0
2023/07/14 20:11:26.000   33.216006750  -87.524012759    59.0694   5   6   4.4846   4.3735  12.9359  -0.7517   2.7449  -4.8680   0.00    0.0
2023/07/14 20:11:27.000   33.215938627  -87.524009195    61.3389   5   5   4.9506   4.8037  15.7549  -2.1753  -3.2112  -2.2044   0.00    0.0
2023/07/14 20:11:28.000   33.215864169  -87.523996061    59.7194   5   6   4.9351   4.2345  11.8246  -2.3715   3.6505  -0.8943   0.00    0.0
2023/07/14 20:11:29.000   33.215785213  -87.523983693    59.5006   5   6   4.4851   4.3743  12.9406  -0.7562   2.7523  -4.8722   0.00    0.0
2023/07/14 20:11:30.000   33.215713530  -87.523965610    60.0388   5   6   4.4852   4.3745  12.9421  -0.7577   2.7548  -4.8735   0.00    0.0
2023/07/14 20:11:31.000   33.215644538  -87.523939134    59.1305   5   6   4.4854   4.3748  12.9437  -0.7592   2.7573  -4.8749   0.00    0.0
2023/07/14 20:11:32.000   33.215598956  -87.523900538    56.0688   5   5   6.6604   6.1882  17.6042   4.5792  -6.6779  -9.0839   0.00    0.0
2023/07/14 20:11:33.000   33.215538132  -87.523883000    59.0520   5   6   4.4857   4.3753  12.9468  -0.7621   2.7622  -4.8777   0.00    0.0
2023/07/14 20:11:34.000   33.215498777  -87.523847624    58.6467   5   6   4.4859   4.3756  12.9484  -0.7636   2.7647  -4.8791   0.00    0.0
2023/07/14 20:11:35.000   33.215477860  -87.523814186    58.9268   5   7   4.1744   4.1189  10.9735  -1.7357   4.2209  -3.5387   0.00    0.0
2023/07/14 20:11:36.000   33.215474713  -87.523788734    58.7759   5   7   4.1745   4.1194  10.9746  -1.7362   4.2223  -3.5402   0.00    0.0
2023/07/14 20:11:37.000   33.215476644  -87.523776920    58.9625   5   7   4.1746   4.1199  10.9756  -1.7367   4.2237  -3.5417   0.00    0.0
2023/07/14 20:11:38.000   33.215475056  -87.523779121    59.3422   5   7   4.1747   4.1203  10.9767  -1.7372   4.2251  -3.5431   0.00    0.0
2023/07/14 20:11:39.000   33.215476415  -87.523778783    58.9552   5   7   4.1748   4.1208  10.9778  -1.7377   4.2265  -3.5446   0.00    0.0
2023/07/14 20:11:40.000   33.215480014  -87.523781884    58.5092   5   7   4.1750   4.1213  10.9788  -1.7382   4.2279  -3.5461   0.00    0.0
2023/07/14 20:11:41.000   33.215480125  -87.523791539    59.2557   5   7   4.1751   4.1217  10.9799  -1.7387   4.2294  -3.5476   0.00    0.0
2023/07/14 20:11:42.000   33.215480827  -87.523801618    58.8259   5   7   4.1752   4.1222  10.9810  -1.7392   4.2308  -3.5490   0.00    0.0
2023/07/14 20:11:43.000   33.215477575  -87.523813076    58.7029   5   7   4.1753   4.1227  10.9820  -1.7397   4.2322  -3.5505   0.00    0.0
2023/07/14 20:11:44.000   33.215471665  -87.523824388    58.9778   5   7   4.1754   4.1231  10.9831  -1.7402   4.2336  -3.5520   0.00    0.0
2023/07/14 20:11:45.000   33.215465348  -87.523833044    59.0785   5   7   4.1755   4.1236  10.9842  -1.7406   4.2350  -3.5534   0.00    0.0
2023/07/14 20:11:46.000   33.215460428  -87.523837418    58.9525   5   7   4.1756   4.1241  10.9852  -1.7411   4.2364  -3.5549   0.00    0.0
2023/07/14 20:11:47.000   33.215459158  -87.523837462    58.9095   5   7   4.1758   4.1245  10.9863  -1.7416   4.2379  -3.5564   0.00    0.0
2023/07/14 20:11:48.000   33.215458618  -87.523837516    58.5406   5   7   4.1759   4.1250  10.9874  -1.7421   4.2393  -3.5578   0.00    0.0
2023/07/14 20:11:49.000   33.215460562  -87.523836868    58.5873   5   7   4.1760   4.1255  10.9884  -1.7426   4.2407  -3.5593   0.00    0.0
2023/07/14 20:11:50.000   33.215470305  -87.523834906    58.6620   5   7   4.1761   4.1259  10.9895  -1.7431   4.2421  -3.5608   0.00    0.0
2023/07/14 20:11:51.000   33.215492927  -87.523836687    58.8665   5   7   4.1762   4.1264  10.9906  -1.7436   4.2435  -3.5622   0.00    0.0
2023/07/14 20:11:52.000   33.215538078  -87.523841096    56.7809   5   5   6.6973   6.1840  17.7488   4.5903  -6.7058  -9.1782   0.00    0.0
2023/07/14 20:11:53.000   33.215583933  -87.523860394    56.2445   5   5   6.6992   6.1837  17.7561   4.5908  -6.7072  -9.1830   0.00    0.0
2023/07/14 20:11:54.000   33.215636412  -87.523887590    56.8518   5   6   4.4894   4.3810  12.9793  -0.7933   2.8138  -4.9071   0.00    0.0
2023/07/14 20:11:55.000   33.215704259  -87.523910712    56.2270   5   5   6.7030   6.1833  17.7708   4.5920  -6.7100  -9.1925   0.00    0.0
2023/07/14 20:11:56.000   33.215765122  -87.523944159    59.3715   5   6   4.4897   4.3815  12.9824  -0.7962   2.8187  -4.9100   0.00    0.0
2023/07/14 20:11:58.000   33.215922853  -87.523968423    59.2927   5   5   4.9521   4.8076  15.6982  -2.1838  -3.0776  -2.3899   0.00    0.0
2023/07/14 20:12:00.000   33.216035113  -87.523975418    58.9166   5   5   4.9522   4.8078  15.6945  -2.1844  -3.0688  -2.4014   0.00    0.0
2023/07/14 20:12:01.000   33.216068674  -87.523979601    59.9675   5   6   4.9349   4.2520  11.8096  -2.3880   3.7154  -1.2297   0.00    0.0
2023/07/14 20:12:02.000   33.216089987  -87.523975434    57.6102   5   7   4.1776   4.1315  11.0022  -1.7492   4.2590  -3.5784   0.00    0.0
2023/07/14 20:12:03.000   33.216108912  -87.523976072    57.6410   5   7   4.1777   4.1320  11.0032  -1.7497   4.2604  -3.5799   0.00    0.0
2023/07/14 20:12:04.000   33.216123534  -87.523976554    57.6868   5   7   4.1778   4.1325  11.0043  -1.7502   4.2618  -3.5813   0.00    0.0
2023/07/14 20:12:05.000   33.216132080  -87.523976801    57.8343   5   7   4.1779   4.1330  11.0053  -1.7507   4.2632  -3.5828   0.00    0.0
2023/07/14 20:12:06.000   33.216129010  -87.523974802    57.1025   5   7   4.1780   4.1334  11.0064  -1.7512   4.2646  -3.5842   0.00    0.0
2023/07/14 20:12:07.000   33.216125912  -87.523976258    57.2700   5   7   4.1781   4.1339  11.0075  -1.7517   4.2660  -3.5857   0.00    0.0
2023/07/14 20:12:08.000   33.216126908  -87.523975064    56.9778   5   7   4.1783   4.1344  11.0085  -1.7522   4.2674  -3.5871   0.00    0.0
2023/07/14 20:12:09.000   33.216127168  -87.523974939    56.9965   5   7   4.1784   4.1348  11.0096  -1.7527   4.2688  -3.5886   0.00    0.0
2023/07/14 20:12:10.000   33.216130350  -87.523975719    57.3182   5   7   4.1785   4.1353  11.0106  -1.7532   4.2702  -3.5900   0.00    0.0
2023/07/14 20:12:11.000   33.216132971  -87.523977441    57.9231   5   6   4.9351   4.2573  11.8052  -2.3932   3.7349  -1.3139   0.00    0.0
2023/07/14 20:12:12.000   33.216133004  -87.523977696    57.9880   5   6   4.9351   4.2579  11.8048  -2.3937   3.7368  -1.3220   0.00    0.0
2023/07/14 20:12:13.000   33.216132970  -87.523978047    58.1791   5   6   4.9351   4.2584  11.8044  -2.3943   3.7387  -1.3301   0.00    0.0
2023/07/14 20:12:14.000   33.216133254  -87.523978072    58.3480   5   6   4.9351   4.2589  11.8039  -2.3948   3.7407  -1.3381   0.00    0.0
2023/07/14 20:12:15.000   33.216133223  -87.523978104    58.3261   5   6   4.9351   4.2595  11.8035  -2.3953   3.7426  -1.3460   0.00    0.0
2023/07/14 20:12:16.000   33.216132998  -87.523978335    58.2898   5   6   4.9351   4.2600  11.8031  -2.3958   3.7446  -1.3539   0.00    0.0
2023/07/14 20:12:17.000   33.216133057  -87.523977888    58.1166   5   6   4.9352   4.2606  11.8027  -2.3964   3.7465  -1.3618   0.00    0.0
2023/07/14 20:12:18.000   33.216137097  -87.523977135    57.8004   5   6   4.9352   4.2611  11.8023  -2.3969   3.7484  -1.3696   0.00    0.0
2023/07/14 20:12:19.000   33.216160393  -87.523984307    57.7564   5   6   4.9352   4.2617  11.8018  -2.3974   3.7504  -1.3773   0.00    0.0
2023/07/14 20:12:20.000   33.216191245  -87.524013071    57.6714   5   6   4.9352   4.2622  11.8014  -2.3979   3.7523  -1.3851   0.00    0.0
2023/07/14 20:12:21.000   33.216210826  -87.524072347    57.6392   5   6   4.9353   4.2627  11.8010  -2.3985   3.7543  -1.3927   0.00    0.0
2023/07/14 20:12:22.000   33.216210681  -87.524152719    57.2506   5   6   4.4944   4.3886  13.0221  -0.8335   2.8816  -4.9459   0.00    0.0
2023/07/14 20:12:23.000   33.216221727  -87.524239596    53.6476   5   5   6.7568   6.1775  17.9783   4.6082  -6.7499  -9.3275   0.00    0.0
2023/07/14 20:12:24.000   33.216218340  -87.524357752    54.7940   5   5   6.7587   6.1772  17.9858   4.6087  -6.7513  -9.3324   0.00    0.0
2023/07/14 20:12:25.000   33.216210249  -87.524477606    55.2422   5   4   7.2430   7.8896  20.4437   2.9138   1.4268 -10.6022   0.00    0.0
2023/07/14 20:12:27.000   33.216217008  -87.524758049    52.4964   5   5   6.7646   6.1766  18.0084   4.6104  -6.7554  -9.3470   0.00    0.0
2023/07/14 20:12:28.000   33.216219598  -87.524915371    51.5835   5   5   6.7666   6.1763  18.0160   4.6110  -6.7568  -9.3519   0.00    0.0
2023/07/14 20:12:29.000   33.216221442  -87.525081998    51.2367   5   5   6.7685   6.1761  18.0235   4.6116  -6.7582  -9.3568   0.00    0.0
2023/07/14 20:12:30.000   33.216226067  -87.525248318    50.2339   5   5   6.7705   6.1759  18.0311   4.6121  -6.7596  -9.3617   0.00    0.0
2023/07/14 20:12:33.000   33.216226195  -87.525759197    50.4704   5   5   6.7764   6.1752  18.0538   4.6138  -6.7638  -9.3764   0.00    0.0
2023/07/14 20:12:34.000   33.216213498  -87.525945639    53.7366   5   5   4.8194   4.6243  13.1308  -1.7982   2.4997  -4.6859   0.00    0.0
2023/07/14 20:12:35.000   33.216216837  -87.526107914    50.9387   5   5   6.7804   6.1747  18.0690   4.6150  -6.7666  -9.3862   0.00    0.0
2023/07/14 20:12:36.000   33.216185365  -87.526290969    53.9226   5   6   4.4970   4.3926  13.0435  -0.8534   2.9160  -4.9650   0.00    0.0
2023/07/14 20:12:37.000   33.216168725  -87.526450595    51.4120   5   6   4.4971   4.3929  13.0450  -0.8548   2.9184  -4.9664   0.00    0.0
2023/07/14 20:12:38.000   33.216138206  -87.526612528    49.9354   5   7   4.1819   4.1488  11.0403  -1.7674   4.3099  -3.6301   0.00    0.0
2023/07/14 20:12:39.000   33.216103124  -87.526769104    49.3839   5   6   4.5699   4.4279  11.2759  -0.5266   3.8795  -4.1717   0.00    0.0
2023/07/14 20:12:40.000   33.216056219  -87.526928864    48.8234   5   6   4.5703   4.4281  11.2776  -0.5284   3.8807  -4.1738   0.00    0.0
2023/07/14 20:12:41.000   33.216007391  -87.527097927    47.6524   5   6   4.6247   6.8405  13.6081  -3.7232   7.8643  -5.3761   0.00    0.0
2023/07/14 20:12:42.000   33.215951776  -87.527216012    49.1478   5   7   4.1824   4.1507  11.0445  -1.7694   4.3156  -3.6357   0.00    0.0
2023/07/14 20:12:43.000   33.215910474  -87.527334364    48.5187   5   7   4.1826   4.1512  11.0456  -1.7699   4.3170  -3.6371   0.00    0.0
2023/07/14 20:12:44.000   33.215879210  -87.527434112    47.8233   5   7   4.1827   4.1517  11.0466  -1.7704   4.3184  -3.6385   0.00    0.0
2023/07/14 20:12:45.000   33.215853218  -87.527514332    47.1054   5   7   4.1828   4.1522  11.0477  -1.7709   4.3198  -3.6399   0.00    0.0
2023/07/14 20:12:46.000   33.215827502  -87.527588752    46.5615   5   7   4.1829   4.1527  11.0487  -1.7714   4.3213  -3.6413   0.00    0.0
2023/07/14 20:12:47.000   33.215803595  -87.527664197    45.4994   5   7   4.1831   4.1532  11.0498  -1.7719   4.3227  -3.6427   0.00    0.0
2023/07/14 20:12:48.000   33.215775477  -87.527745788    45.6919   5   7   4.1832   4.1537  11.0508  -1.7724   4.3241  -3.6441   0.00    0.0
2023/07/14 20:12:49.000   33.215744010  -87.527839859    45.9544   5   7   4.1833   4.1541  11.0519  -1.7729   4.3255  -3.6455   0.00    0.0
2023/07/14 20:12:50.000   33.215706052  -87.527945330    45.2521   5   6   4.6300   6.8552  13.6303  -3.7367   7.8876  -5.3967   0.00    0.0
2023/07/14 20:12:51.000   33.215664079  -87.528060505    44.3912   5   6   4.6306   6.8569  13.6328  -3.7382   7.8902  -5.3990   0.00    0.0
2023/07/14 20:12:52.000   33.215627245  -87.528182877    41.5486   5   4   7.3371   7.8791  20.7783   2.8396   1.7337 -10.8146   0.00    0.0
2023/07/14 20:12:53.000   33.215556738  -87.528329143    48.2656   5   6   4.5000   4.3975  13.0693  -0.8770   2.9571  -4.9879   0.00    0.0
2023/07/14 20:12:54.000   33.215470215  -87.528501108    41.4427   5   4  30.5322  12.5282  31.7775  17.1146  18.7780  28.9264   0.00    0.0
2023/07/14 20:12:57.000   33.215360033  -87.528918017    43.0246   5   7   4.1843   4.1581  11.0604  -1.7769   4.3368  -3.6567   0.00    0.0
2023/07/14 20:12:58.000   33.215304177  -87.529071866    42.3058   5   7   4.1844   4.1586  11.0614  -1.7774   4.3382  -3.6580   0.00    0.0
2023/07/14 20:12:59.000   33.215251990  -87.529222437    42.0573   5   7   4.1846   4.1591  11.0625  -1.7779   4.3396  -3.6594   0.00    0.0
2023/07/14 20:13:00.000   33.215201521  -87.529368041    41.5433   5   7   4.1847   4.1596  11.0635  -1.7784   4.3411  -3.6608   0.00    0.0
2023/07/14 20:13:01.000   33.215148376  -87.529511181    40.9804   5   7   4.1848   4.1601  11.0646  -1.7789   4.3425  -3.6622   0.00    0.0
2023/07/14 20:13:02.000   33.215092029  -87.529651926    41.1219   5   7   4.1850   4.1606  11.0656  -1.7794   4.3439  -3.6636   0.00    0.0
2023/07/14 20:13:03.000   33.215034553  -87.529793362    40.6508   5   7   4.1851   4.1611  11.0667  -1.7799   4.3453  -3.6650   0.00    0.0
2023/07/14 20:13:04.000   33.214979138  -87.529937215    39.7552   5   7   4.1852   4.1616  11.0677  -1.7804   4.3467  -3.6663   0.00    0.0
2023/07/14 20:13:05.000   33.214924912  -87.530082249    39.0639   5   7   4.1853   4.1620  11.0688  -1.7810   4.3481  -3.6677   0.00    0.0
2023/07/14 20:13:06.000   33.214873476  -87.530220657    40.1571   5   6   4.9370   4.2881  11.7837  -2.4229   3.8417  -1.6990   0.00    0.0
2023/07/14 20:13:07.000   33.214776152  -87.530265663    44.4660   5   4  26.9399  39.5829  26.8728 -32.3468  30.8213 -24.9965   0.00    0.0
2023/07/14 20:13:08.000   33.214780897  -87.530475098    38.8862   5   6   4.5197   4.3972  11.1859  -2.3641   4.0854  -3.2814   0.00    0.0
2023/07/14 20:13:09.000   33.214754614  -87.530597694    39.0018   5   7   4.1858   4.1640  11.0730  -1.7830   4.3538  -3.6732   0.00    0.0
2023/07/14 20:13:10.000   33.214727051  -87.530717645    39.0432   5   7   4.1860   4.1645  11.0740  -1.7835   4.3552  -3.6746   0.00    0.0
2023/07/14 20:13:11.000   33.214694804  -87.530829666    39.2818   5   7   4.1861   4.1650  11.0751  -1.7840   4.3566  -3.6760   0.00    0.0
2023/07/14 20:13:12.000   33.214657446  -87.530935098    38.9824   5   7   4.1862   4.1655  11.0761  -1.7845   4.3580  -3.6774   0.00    0.0
2023/07/14 20:13:13.000   33.214618377  -87.531035868    39.3282   5   7   4.1864   4.1660  11.0772  -1.7850   4.3594  -3.6788   0.00    0.0
2023/07/14 20:13:14.000   33.214586810  -87.531132742    39.4676   5   7   4.1865   4.1665  11.0782  -1.7855   4.3608  -3.6801   0.00    0.0
2023/07/14 20:13:15.000   33.214569946  -87.531213291    39.4063   5   7   4.1866   4.1670  11.0793  -1.7860   4.3622  -3.6815   0.00    0.0
2023/07/14 20:13:16.000   33.214571505  -87.531285289    39.0196   5   7   4.1868   4.1675  11.0803  -1.7865   4.3636  -3.6829   0.00    0.0
2023/07/14 20:13:17.000   33.214595789  -87.531348004    38.8072   5   7   4.1869   4.1680  11.0813  -1.7870   4.3650  -3.6843   0.00    0.0
2023/07/14 20:13:18.000   33.214642834  -87.531400550    39.1156   5   7   4.1870   4.1684  11.0824  -1.7875   4.3663  -3.6857   0.00    0.0
2023/07/14 20:13:19.000   33.214711745  -87.531451374    39.1402   5   7   4.1872   4.1689  11.0834  -1.7880   4.3677  -3.6871   0.00    0.0
2023/07/14 20:13:20.000   33.214796747  -87.531502416    38.5068   5   7   4.1873   4.1694  11.0844  -1.7886   4.3691  -3.6885   0.00    0.0
2023/07/14 20:13:21.000   33.214893134  -87.531552017    38.2687   5   7   4.1874   4.1699  11.0854  -1.7891   4.3705  -3.6899   0.00    0.0
2023/07/14 20:13:22.000   33.214998410  -87.531604523    37.8963   5   7   4.1876   4.1704  11.0865  -1.7896   4.3719  -3.6913   0.00    0.0
2023/07/14 20:13:23.000   33.215110824  -87.531661126    37.5713   5   7   4.1877   4.1709  11.0875  -1.7901   4.3733  -3.6927   0.00    0.0
2023/07/14 20:13:24.000   33.215229472  -87.531720224    37.3634   5   7   4.1879   4.1713  11.0885  -1.7906   4.3746  -3.6941   0.00    0.0
2023/07/14 20:13:25.000   33.215350543  -87.531780462    36.8614   5   7   4.1880   4.1718  11.0895  -1.7912   4.3760  -3.6955   0.00    0.0
2023/07/14 20:13:26.000   33.215474551  -87.531840866    36.5527   5   7   4.1881   4.1723  11.0905  -1.7917   4.3774  -3.6969   0.00    0.0
2023/07/14 20:13:27.000   33.215600737  -87.531904157    36.0866   5   7   4.1883   4.1728  11.0915  -1.7922   4.3788  -3.6983   0.00    0.0
2023/07/14 20:13:28.000   33.215727948  -87.531965161    35.7975   5   7   4.1884   4.1733  11.0926  -1.7927   4.3802  -3.6997   0.00    0.0
2023/07/14 20:13:29.000   33.215854013  -87.532024705    35.4541   5   7   4.1886   4.1738  11.0936  -1.7932   4.3815  -3.7011   0.00    0.0
2023/07/14 20:13:30.000   33.215979231  -87.532084556    35.1699   5   7   4.1887   4.1742  11.0946  -1.7938   4.3829  -3.7025   0.00    0.0
2023/07/14 20:13:31.000   33.216103719  -87.532147901    35.1631   5   7   4.1888   4.1747  11.0956  -1.7943   4.3843  -3.7039   0.00    0.0
2023/07/14 20:13:32.000   33.216223350  -87.532218907    35.3143   5   7   4.1890   4.1752  11.0966  -1.7948   4.3857  -3.7053   0.00    0.0
2023/07/14 20:13:33.000   33.216333157  -87.532301424    35.5009   5   7   4.1891   4.1757  11.0976  -1.7953   4.3871  -3.7067   0.00    0.0
2023/07/14 20:13:34.000   33.216430802  -87.532397489    35.7504   5   7   4.1893   4.1762  11.0986  -1.7958   4.3884  -3.7080   0.00    0.0
2023/07/14 20:13:35.000   33.216515934  -87.532506202    36.1359   5   7   4.1894   4.1767  11.0996  -1.7963   4.3898  -3.7094   0.00    0.0
2023/07/14 20:13:36.000   33.216586912  -87.532625585    36.5072   5   7   4.1896   4.1772  11.1007  -1.7969   4.3912  -3.7108   0.00    0.0
2023/07/14 20:13:37.000   33.216656392  -87.532741645    34.2604   5   5   6.9084   6.1616  18.5533   4.6525  -6.8564  -9.6984   0.00    0.0
2023/07/14 20:13:38.000   33.216703271  -87.532872950    34.6121   5   5   6.9105   6.1614  18.5613   4.6531  -6.8579  -9.7036   0.00    0.0
2023/07/14 20:13:39.000   33.216729487  -87.533016170    37.8796   5   7   4.1900   4.1787  11.1037  -1.7984   4.3954  -3.7149   0.00    0.0
2023/07/14 20:13:40.000   33.216764498  -87.533147219    38.2060   5   7   4.1901   4.1791  11.1048  -1.7989   4.3968  -3.7163   0.00    0.0
2023/07/14 20:13:41.000   33.216807856  -87.533271849    37.8527   5   7   4.1902   4.1796  11.1058  -1.7994   4.3982  -3.7177   0.00    0.0
2023/07/14 20:13:42.000   33.216863072  -87.533388374    35.8613   5   5   6.9192   6.1605  18.5935   4.6557  -6.8639  -9.7243   0.00    0.0
2023/07/14 20:13:43.000   33.216916194  -87.533511639    36.0004   5   5   6.9213   6.1603  18.6016   4.6563  -6.8653  -9.7295   0.00    0.0
2023/07/14 20:13:44.000   33.216965533  -87.533642583    38.7529   5   7   4.1907   4.1811  11.1088  -1.8010   4.4023  -3.7218   0.00    0.0
2023/07/14 20:13:45.000   33.217031476  -87.533759006    38.4834   5   7   4.1908   4.1816  11.1099  -1.8015   4.4037  -3.7231   0.00    0.0
2023/07/14 20:13:46.000   33.217102171  -87.533871591    38.6384   5   7   4.1910   4.1821  11.1109  -1.8020   4.4051  -3.7245   0.00    0.0
2023/07/14 20:13:47.000   33.217179336  -87.533978672    38.2883   5   7   4.1911   4.1826  11.1119  -1.8025   4.4065  -3.7259   0.00    0.0
2023/07/14 20:13:48.000   33.217271865  -87.534073008    35.0037   5   5   6.9323   6.1593  18.6420   4.6595  -6.8729  -9.7555   0.00    0.0
2023/07/14 20:13:49.000   33.217346191  -87.534188659    38.1182   5   7   4.1914   4.1836  11.1139  -1.8036   4.4093  -3.7286   0.00    0.0
2023/07/14 20:13:50.000   33.217439460  -87.534287700    37.6481   5   7   4.1915   4.1841  11.1149  -1.8041   4.4106  -3.7300   0.00    0.0
2023/07/14 20:13:51.000   33.217540317  -87.534379109    36.5359   5   7   4.1917   4.1846  11.1159  -1.8046   4.4120  -3.7313   0.00    0.0
2023/07/14 20:13:52.000   33.217642956  -87.534467922    36.1339   5   7   4.1918   4.1851  11.1169  -1.8051   4.4134  -3.7327   0.00    0.0
2023/07/14 20:13:53.000   33.217737620  -87.534562821    35.9175   5   7   4.1920   4.1856  11.1179  -1.8056   4.4148  -3.7341   0.00    0.0
2023/07/14 20:13:54.000   33.217822077  -87.534662497    35.6241   5   7   4.1921   4.1861  11.1190  -1.8062   4.4161  -3.7355   0.00    0.0
2023/07/14 20:13:55.000   33.217894605  -87.534762793    35.6578   5   7   4.1922   4.1865  11.1200  -1.8067   4.4175  -3.7368   0.00    0.0
2023/07/14 20:13:56.000   33.217957274  -87.534858076    35.7605   5   7   4.1924   4.1870  11.1210  -1.8072   4.4189  -3.7382   0.00    0.0
2023/07/14 20:13:57.000   33.218015333  -87.534946386    35.8944   5   7   4.1925   4.1875  11.1220  -1.8077   4.4203  -3.7395   0.00    0.0
2023/07/14 20:13:58.000   33.218065136  -87.535032483    35.4293   5   7   4.1927   4.1880  11.1230  -1.8082   4.4216  -3.7409   0.00    0.0
2023/07/14 20:13:59.000   33.218100247  -87.535119965    35.6197   5   7   4.1928   4.1885  11.1240  -1.8087   4.4230  -3.7422   0.00    0.0
2023/07/14 20:14:00.000   33.218125129  -87.535195352    35.7167   5   7   4.1930   4.1890  11.1250  -1.8093   4.4244  -3.7436   0.00    0.0
2023/07/14 20:14:01.000   33.218145279  -87.535252307    35.7352   5   7   4.1931   4.1895  11.1260  -1.8098   4.4258  -3.7449   0.00    0.0
2023/07/14 20:14:02.000   33.218169126  -87.535294843    35.5724   5   7   4.1932   4.1900  11.1271  -1.8103   4.4271  -3.7463   0.00    0.0
2023/07/14 20:14:03.000   33.218197334  -87.535321675    35.6633   5   7   4.1934   4.1905  11.1281  -1.8108   4.4285  -3.7476   0.00    0.0
2023/07/14 20:14:04.000   33.218230232  -87.535334246    36.1611   5   7   4.1935   4.1910  11.1291  -1.8113   4.4299  -3.7490   0.00    0.0
2023/07/14 20:14:05.000   33.218266697  -87.535332511    36.3380   5   7   4.1937   4.1915  11.1301  -1.8118   4.4312  -3.7503   0.00    0.0
2023/07/14 20:14:06.000   33.218303143  -87.535312536    36.2085   5   7   4.1938   4.1920  11.1311  -1.8123   4.4326  -3.7517   0.00    0.0
2023/07/14 20:14:07.000   33.218331513  -87.535274563    36.1417   5   7   4.1939   4.1925  11.1321  -1.8128   4.4339  -3.7530   0.00    0.0
2023/07/14 20:14:08.000   33.218344624  -87.535223751    36.1028   5   7   4.1941   4.1930  11.1331  -1.8133   4.4353  -3.7543   0.00    0.0
2023/07/14 20:14:09.000   33.218345727  -87.535163887    35.9805   5   7   4.1942   4.1934  11.1341  -1.8138   4.4366  -3.7557   0.00    0.0
2023/07/14 20:14:10.000   33.218344508  -87.535095587    35.7639   5   7   4.1944   4.1939  11.1351  -1.8143   4.4380  -3.7570   0.00    0.0
2023/07/14 20:14:11.000   33.218342659  -87.535022540    35.5977   5   7   4.1945   4.1944  11.1361  -1.8148   4.4393  -3.7583   0.00    0.0
