% program   : RTKPOST ver.2.4.3 b34
% inp file  : C:\Users\abdal\OneDrive\Documents\UA_REU\GPS Files\SHE2\she20010.22o
% inp file  : C:\Users\abdal\OneDrive\Documents\UA_REU\GPS Files\SHE2\she20010.22n
% obs start : 2022/01/01 00:00:00.0 GPST (week2190 518400.0s)
% obs end   : 2022/01/01 23:59:30.0 GPST (week2190 604770.0s)
% pos mode  : Single
% elev mask : 15.0 deg
% ionos opt : Broadcast
% tropo opt : Saastamoinen
% ephemeris : Broadcast
% navi sys  : GPS
%
% (lat/lon/height=WGS84/ellipsoidal,Q=1:fix,2:float,3:sbas,4:dgps,5:single,6:ppp,ns=# of satellites)
%  GPST                  latitude(deg) longitude(deg)  height(m)   Q  ns   sdn(m)   sde(m)   sdu(m)  sdne(m)  sdeu(m)  sdun(m) age(s)  ratio
2022/01/01 00:00:00.000   46.220698368  -64.552000945   -18.6116   5   7   2.9787   1.9260   7.1823  -0.3871   1.4369   3.3379   0.00    0.0
2022/01/01 00:00:30.000   46.220700026  -64.552003256   -19.1773   5   7   2.9887   1.9275   7.1979  -0.3953   1.4546   3.3549   0.00    0.0
2022/01/01 00:01:00.000   46.220699623  -64.552007044   -17.7234   5   7   2.9984   1.9291   7.2119  -0.4036   1.4718   3.3705   0.00    0.0
2022/01/01 00:01:30.000   46.220698068  -64.552004339   -18.9362   5   7   3.0076   1.9307   7.2243  -0.4123   1.4884   3.3849   0.00    0.0
2022/01/01 00:02:00.000   46.220695858  -64.552001453   -19.2475   5   7   3.0164   1.9324   7.2351  -0.4212   1.5046   3.3979   0.00    0.0
2022/01/01 00:02:30.000   46.220702089  -64.552000928   -17.7033   5   8   2.6665   1.7670   4.9623  -1.1437  -1.3562   2.0221   0.00    0.0
2022/01/01 00:03:00.000   46.220709188  -64.552002025   -15.7129   5   8   2.6754   1.7663   4.9723  -1.1510  -1.3510   2.0390   0.00    0.0
2022/01/01 00:03:30.000   46.220700767  -64.552001941   -16.4367   5   8   2.6843   1.7656   4.9820  -1.1582  -1.3456   2.0554   0.00    0.0
2022/01/01 00:04:00.000   46.220698327  -64.552002875   -16.2324   5   8   2.6931   1.7649   4.9915  -1.1652  -1.3399   2.0712   0.00    0.0
2022/01/01 00:04:30.000   46.220702645  -64.552004239   -17.5051   5   8   2.7018   1.7643   5.0007  -1.1721  -1.3341   2.0865   0.00    0.0
2022/01/01 00:05:00.000   46.220691630  -64.552002006   -17.1199   5   8   2.7104   1.7637   5.0095  -1.1788  -1.3280   2.1011   0.00    0.0
2022/01/01 00:05:30.000   46.220701830  -64.552000338   -16.8159   5   8   2.7189   1.7631   5.0180  -1.1854  -1.3217   2.1153   0.00    0.0
2022/01/01 00:06:00.000   46.220696003  -64.552006934   -17.7730   5   8   2.7274   1.7626   5.0262  -1.1918  -1.3152   2.1288   0.00    0.0
2022/01/01 00:06:30.000   46.220700348  -64.552005581   -16.7343   5   8   2.7357   1.7621   5.0341  -1.1981  -1.3084   2.1417   0.00    0.0
2022/01/01 00:07:00.000   46.220702438  -64.552005021   -17.5328   5   8   2.7439   1.7616   5.0415  -1.2042  -1.3013   2.1540   0.00    0.0
2022/01/01 00:07:30.000   46.220698944  -64.552000115   -16.8960   5   8   2.7519   1.7612   5.0486  -1.2102  -1.2940   2.1657   0.00    0.0
2022/01/01 00:08:00.000   46.220702776  -64.552004604   -16.5581   5   8   2.7598   1.7608   5.0553  -1.2160  -1.2864   2.1767   0.00    0.0
2022/01/01 00:08:30.000   46.220699789  -64.552000925   -17.4129   5   8   2.7676   1.7604   5.0616  -1.2217  -1.2785   2.1871   0.00    0.0
2022/01/01 00:09:00.000   46.220704748  -64.552002319   -16.5362   5   8   2.7752   1.7600   5.0674  -1.2272  -1.2703   2.1968   0.00    0.0
2022/01/01 00:09:30.000   46.220704690  -64.552002909   -17.9123   5   7   2.7955   2.4936   7.9522  -1.0222  -3.5231   1.7949   0.00    0.0
2022/01/01 00:10:00.000   46.220701713  -64.552007235   -14.0674   5   7   2.8008   2.4899   7.9869  -1.0473  -3.5259   1.8382   0.00    0.0
2022/01/01 00:10:30.000   46.220701710  -64.552001679   -16.9794   5   7   2.8061   2.4861   8.0207  -1.0711  -3.5282   1.8795   0.00    0.0
2022/01/01 00:11:00.000   46.220702005  -64.552003753   -18.6601   5   7   2.8114   2.4822   8.0535  -1.0939  -3.5298   1.9189   0.00    0.0
2022/01/01 00:11:30.000   46.220700430  -64.552006427   -16.7568   5   7   2.8167   2.4781   8.0851  -1.1156  -3.5308   1.9563   0.00    0.0
2022/01/01 00:12:00.000   46.220705391  -64.552002258   -15.9787   5   7   2.8220   2.4738   8.1155  -1.1363  -3.5312   1.9920   0.00    0.0
2022/01/01 00:12:30.000   46.220704504  -64.552003052   -16.2181   5   7   2.8272   2.4695   8.1447  -1.1561  -3.5308   2.0257   0.00    0.0
2022/01/01 00:13:00.000   46.220700393  -64.552004737   -17.2732   5   7   2.8324   2.4649   8.1725  -1.1748  -3.5296   2.0576   0.00    0.0
2022/01/01 00:13:30.000   46.220708589  -64.552006464   -15.7540   5   7   2.8375   2.4602   8.1989  -1.1927  -3.5277   2.0876   0.00    0.0
2022/01/01 00:14:00.000   46.220703511  -64.552008938   -13.9376   5   7   2.8425   2.4553   8.2238  -1.2096  -3.5250   2.1157   0.00    0.0
2022/01/01 00:14:30.000   46.220702323  -64.552000022   -14.6584   5   7   2.8474   2.4502   8.2471  -1.2256  -3.5214   2.1419   0.00    0.0
2022/01/01 00:15:00.000   46.220703363  -64.551999482   -17.0294   5   7   2.8522   2.4449   8.2687  -1.2408  -3.5169   2.1663   0.00    0.0
2022/01/01 00:15:30.000   46.220702311  -64.552004931   -15.5353   5   7   2.8569   2.4394   8.2886  -1.2551  -3.5115   2.1887   0.00    0.0
2022/01/01 00:16:00.000   46.220698712  -64.552001205   -15.7613   5   7   2.8614   2.4337   8.3067  -1.2685  -3.5051   2.2093   0.00    0.0
2022/01/01 00:16:30.000   46.220703564  -64.552004302   -16.1887   5   7   2.8658   2.4278   8.3230  -1.2812  -3.4978   2.2278   0.00    0.0
2022/01/01 00:17:00.000   46.220696868  -64.551999630   -18.7594   5   7   2.8700   2.4217   8.3373  -1.2930  -3.4894   2.2445   0.00    0.0
2022/01/01 00:17:30.000   46.220700951  -64.552002856   -15.7348   5   7   2.8740   2.4154   8.3498  -1.3040  -3.4801   2.2591   0.00    0.0
2022/01/01 00:18:00.000   46.220698885  -64.552002496   -17.6083   5   7   2.8778   2.4089   8.3602  -1.3143  -3.4697   2.2718   0.00    0.0
2022/01/01 00:18:30.000   46.220699062  -64.552004263   -17.1589   5   7   2.8814   2.4022   8.3686  -1.3238  -3.4583   2.2825   0.00    0.0
2022/01/01 00:19:00.000   46.220699276  -64.551998532   -18.2944   5   7   2.8848   2.3953   8.3749  -1.3326  -3.4459   2.2912   0.00    0.0
2022/01/01 00:19:30.000   46.220702121  -64.552000227   -15.8339   5   7   2.8880   2.3881   8.3792  -1.3406  -3.4323   2.2979   0.00    0.0
2022/01/01 00:20:00.000   46.220695977  -64.552004303   -15.8540   5   7   2.8910   2.3808   8.3814  -1.3479  -3.4177   2.3026   0.00    0.0
2022/01/01 00:20:30.000   46.220698987  -64.552011172   -13.3771   5   7   2.8937   2.3733   8.3814  -1.3545  -3.4020   2.3052   0.00    0.0
2022/01/01 00:21:00.000   46.220697743  -64.552004598   -17.2108   5   7   2.8962   2.3656   8.3794  -1.3605  -3.3852   2.3058   0.00    0.0
2022/01/01 00:21:30.000   46.220705328  -64.552006111   -15.3449   5   7   2.8985   2.3578   8.3752  -1.3658  -3.3674   2.3044   0.00    0.0
2022/01/01 00:22:00.000   46.220698495  -64.552003236   -17.6199   5   7   2.9005   2.3497   8.3689  -1.3705  -3.3485   2.3009   0.00    0.0
2022/01/01 00:22:30.000   46.220704650  -64.552007961   -16.2734   5   7   2.9023   2.3415   8.3606  -1.3746  -3.3285   2.2954   0.00    0.0
2022/01/01 00:23:00.000   46.220695466  -64.552005228   -18.1893   5   7   2.9039   2.3332   8.3502  -1.3781  -3.3075   2.2878   0.00    0.0
2022/01/01 00:23:30.000   46.220700082  -64.552004979   -16.0422   5   7   2.9053   2.3248   8.3378  -1.3811  -3.2855   2.2782   0.00    0.0
2022/01/01 00:24:00.000   46.220697559  -64.552007978   -15.8380   5   7   2.9064   2.3162   8.3234  -1.3835  -3.2625   2.2666   0.00    0.0
2022/01/01 00:24:30.000   46.220697851  -64.552005957   -14.8035   5   7   2.9074   2.3075   8.3070  -1.3854  -3.2384   2.2530   0.00    0.0
2022/01/01 00:25:00.000   46.220701041  -64.552000907   -18.0729   5   7   2.9081   2.2987   8.2888  -1.3869  -3.2134   2.2374   0.00    0.0
2022/01/01 00:25:30.000   46.220694748  -64.552000347   -17.6829   5   7   2.9086   2.2899   8.2687  -1.3879  -3.1875   2.2197   0.00    0.0
2022/01/01 00:26:00.000   46.220699454  -64.552007424   -17.1992   5   7   2.9089   2.2810   8.2469  -1.3885  -3.1606   2.2001   0.00    0.0
2022/01/01 00:26:30.000   46.220698317  -64.551999257   -18.6470   5   7   2.9091   2.2720   8.2233  -1.3888  -3.1328   2.1785   0.00    0.0
2022/01/01 00:27:00.000   46.220698151  -64.552002380   -16.6409   5   7   2.9091   2.2630   8.1981  -1.3887  -3.1042   2.1549   0.00    0.0
2022/01/01 00:27:30.000   46.220701762  -64.552000228   -17.2218   5   7   2.9089   2.2540   8.1713  -1.3882  -3.0747   2.1293   0.00    0.0
2022/01/01 00:28:00.000   46.220698099  -64.552000770   -17.4124   5   7   2.9086   2.2450   8.1431  -1.3875  -3.0445   2.1018   0.00    0.0
2022/01/01 00:28:30.000   46.220703254  -64.552002866   -16.7583   5   7   2.9082   2.2360   8.1134  -1.3865  -3.0134   2.0723   0.00    0.0
2022/01/01 00:29:00.000   46.220706110  -64.552000566   -18.0719   5   7   2.9076   2.2271   8.0824  -1.3853  -2.9816   2.0408   0.00    0.0
2022/01/01 00:29:30.000   46.220697451  -64.551999596   -18.1049   5   7   2.9070   2.2182   8.0501  -1.3839  -2.9491   2.0074   0.00    0.0
2022/01/01 00:30:00.000   46.220697270  -64.552009691   -16.4074   5   7   2.9062   2.2093   8.0167  -1.3824  -2.9159   1.9720   0.00    0.0
2022/01/01 00:30:30.000   46.220705144  -64.552004400   -15.4574   5   7   2.9054   2.2005   7.9822  -1.3807  -2.8821   1.9345   0.00    0.0
2022/01/01 00:31:00.000   46.220703453  -64.552003755   -17.5384   5   7   2.9045   2.1918   7.9466  -1.3789  -2.8477   1.8951   0.00    0.0
2022/01/01 00:31:30.000   46.220696166  -64.551999511   -17.7630   5   7   2.9036   2.1833   7.9102  -1.3770  -2.8126   1.8535   0.00    0.0
2022/01/01 00:32:00.000   46.220704461  -64.552006511   -16.7595   5   7   2.9027   2.1748   7.8729  -1.3751  -2.7770   1.8099   0.00    0.0
2022/01/01 00:32:30.000   46.220699794  -64.551999893   -17.4926   5   7   2.9017   2.1664   7.8349  -1.3731  -2.7409   1.7641   0.00    0.0
2022/01/01 00:33:00.000   46.220702525  -64.552005651   -17.3631   5   7   2.9008   2.1582   7.7962  -1.3712  -2.7043   1.7160   0.00    0.0
2022/01/01 00:33:30.000   46.220699123  -64.551999406   -17.2096   5   7   2.8999   2.1501   7.7570  -1.3693  -2.6671   1.6656   0.00    0.0
2022/01/01 00:34:00.000   46.220701523  -64.552004914   -16.7618   5   7   2.8990   2.1422   7.7172  -1.3674  -2.6295   1.6126   0.00    0.0
2022/01/01 00:34:30.000   46.220695884  -64.552002998   -16.9608   5   7   2.8981   2.1345   7.6770  -1.3657  -2.5915   1.5571   0.00    0.0
2022/01/01 00:35:00.000   46.220703833  -64.552005038   -16.6916   5   7   2.8973   2.1270   7.6364  -1.3640  -2.5530   1.4987   0.00    0.0
2022/01/01 00:35:30.000   46.220698116  -64.551999985   -18.0797   5   7   2.8966   2.1196   7.5956  -1.3625  -2.5142   1.4373   0.00    0.0
2022/01/01 00:36:00.000   46.220697175  -64.552003102   -17.4949   5   7   2.8959   2.1124   7.5545  -1.3611  -2.4749   1.3724   0.00    0.0
2022/01/01 00:36:30.000   46.220704279  -64.552005748   -17.1408   5   7   2.8954   2.1055   7.5133  -1.3598  -2.4353   1.3038   0.00    0.0
2022/01/01 00:37:00.000   46.220700585  -64.551995606   -18.1362   5   7   2.8950   2.0987   7.4720  -1.3588  -2.3953   1.2308   0.00    0.0
2022/01/01 00:37:30.000   46.220701990  -64.552001531   -17.6869   5   7   2.8946   2.0922   7.4307  -1.3580  -2.3549   1.1527   0.00    0.0
2022/01/01 00:38:00.000   46.220700884  -64.551997075   -16.9262   5   7   2.8944   2.0858   7.3894  -1.3573  -2.3142   1.0685   0.00    0.0
2022/01/01 00:38:30.000   46.220700787  -64.551996518   -18.2679   5   7   2.8944   2.0797   7.3482  -1.3570  -2.2732   0.9767   0.00    0.0
2022/01/01 00:39:00.000   46.220699912  -64.552003212   -17.3186   5   7   2.8945   2.0739   7.3071  -1.3568  -2.2317   0.8751   0.00    0.0
2022/01/01 00:39:30.000   46.220699000  -64.551996860   -16.6778   5   7   2.8947   2.0683   7.2663  -1.3569  -2.1900   0.7597   0.00    0.0
2022/01/01 00:40:00.000   46.220700644  -64.551997789   -17.6909   5   7   2.8952   2.0629   7.2256  -1.3573  -2.1478   0.6232   0.00    0.0
2022/01/01 00:40:30.000   46.220701948  -64.551994212   -17.4503   5   7   2.8958   2.0577   7.1853  -1.3580  -2.1053   0.4467   0.00    0.0
2022/01/01 00:41:00.000   46.220698343  -64.551999576   -17.8927   5   7   2.8965   2.0528   7.1453  -1.3589  -2.0624   0.1036   0.00    0.0
2022/01/01 00:41:30.000   46.220697696  -64.552004243   -16.9914   5   7   2.8975   2.0482   7.1057  -1.3602  -2.0191  -0.4218   0.00    0.0
2022/01/01 00:42:00.000   46.220694496  -64.551995854   -18.4728   5   7   2.8987   2.0438   7.0664  -1.3618  -1.9754  -0.6052   0.00    0.0
2022/01/01 00:42:30.000   46.220698704  -64.552003312   -18.0443   5   7   2.9000   2.0396   7.0276  -1.3636  -1.9312  -0.7445   0.00    0.0
2022/01/01 00:43:00.000   46.220696993  -64.551994513   -17.9021   5   7   2.9016   2.0357   6.9893  -1.3658  -1.8865  -0.8613   0.00    0.0
2022/01/01 00:43:30.000   46.220698191  -64.551998680   -17.7347   5   7   2.9034   2.0320   6.9515  -1.3684  -1.8413  -0.9637   0.00    0.0
2022/01/01 00:44:00.000   46.220697492  -64.551998542   -17.5890   5   7   2.9054   2.0286   6.9142  -1.3712  -1.7956  -1.0561   0.00    0.0
2022/01/01 00:44:30.000   46.220695689  -64.551999217   -17.0342   5   7   2.9076   2.0255   6.8774  -1.3744  -1.7492  -1.1407   0.00    0.0
2022/01/01 00:45:00.000   46.220700258  -64.551997735   -17.7910   5   7   2.9101   2.0226   6.8413  -1.3779  -1.7022  -1.2192   0.00    0.0
2022/01/01 00:45:30.000   46.220697690  -64.551996040   -18.1555   5   7   2.9128   2.0199   6.8057  -1.3817  -1.6545  -1.2926   0.00    0.0
2022/01/01 00:46:00.000   46.220699047  -64.552000413   -17.0569   5   7   2.9157   2.0175   6.7707  -1.3859  -1.6060  -1.3618   0.00    0.0
2022/01/01 00:46:30.000   46.220707122  -64.551998303   -19.6359   5   7   2.9188   2.0154   6.7363  -1.3904  -1.5565  -1.4275   0.00    0.0
2022/01/01 00:47:00.000   46.220701076  -64.552002569   -17.4009   5   7   2.9222   2.0135   6.7026  -1.3952  -1.5061  -1.4900   0.00    0.0
2022/01/01 00:47:30.000   46.220693807  -64.551999509   -15.3662   5   7   2.9259   2.0118   6.6696  -1.4004  -1.4546  -1.5497   0.00    0.0
2022/01/01 00:48:00.000   46.220695457  -64.551995960   -17.9247   5   7   2.9298   2.0104   6.6372  -1.4059  -1.4018  -1.6070   0.00    0.0
2022/01/01 00:48:30.000   46.220692784  -64.552001233   -17.9045   5   7   2.9339   2.0093   6.6055  -1.4118  -1.3477  -1.6620   0.00    0.0
2022/01/01 00:49:00.000   46.220698007  -64.551996612   -17.1828   5   7   2.9383   2.0084   6.5745  -1.4180  -1.2919  -1.7151   0.00    0.0
2022/01/01 00:49:30.000   46.220697276  -64.552000348   -17.0958   5   7   2.9429   2.0077   6.5442  -1.4245  -1.2343  -1.7664   0.00    0.0
2022/01/01 00:50:00.000   46.220692933  -64.551996915   -17.5936   5   7   2.9478   2.0073   6.5146  -1.4313  -1.1745  -1.8161   0.00    0.0
2022/01/01 00:50:30.000   46.220702489  -64.551995859   -17.6858   5   7   2.9530   2.0071   6.4856  -1.4385  -1.1123  -1.8642   0.00    0.0
2022/01/01 00:51:00.000   46.220691181  -64.551998177   -17.7596   5   7   2.9584   2.0072   6.4575  -1.4460  -1.0470  -1.9110   0.00    0.0
2022/01/01 00:51:30.000   46.220694958  -64.551996712   -16.4082   5   7   2.9641   2.0075   6.4300  -1.4538  -0.9781  -1.9564   0.00    0.0
2022/01/01 00:52:00.000   46.220698735  -64.552001041   -16.8863   5   7   2.9700   2.0081   6.4032  -1.4619  -0.9048  -2.0007   0.00    0.0
2022/01/01 00:52:30.000   46.220698620  -64.551994851   -18.4657   5   7   2.9762   2.0089   6.3772  -1.4703  -0.8258  -2.0439   0.00    0.0
2022/01/01 00:53:00.000   46.220701886  -64.552001789   -18.5280   5   7   2.9826   2.0099   6.3519  -1.4791  -0.7392  -2.0861   0.00    0.0
2022/01/01 00:53:30.000   46.220694319  -64.552001138   -16.8137   5   7   2.9893   2.0111   6.3273  -1.4881  -0.6420  -2.1273   0.00    0.0
2022/01/01 00:54:00.000   46.220697075  -64.552000688   -17.6968   5   7   2.9962   2.0126   6.3034  -1.4975  -0.5283  -2.1676   0.00    0.0
2022/01/01 00:54:30.000   46.220696888  -64.551998597   -17.9678   5   7   3.0035   2.0144   6.2802  -1.5071  -0.3834  -2.2071   0.00    0.0
2022/01/01 00:55:00.000   46.220702208  -64.552000863   -17.9172   5   7   3.0109   2.0163   6.2578  -1.5171  -0.1263  -2.2458   0.00    0.0
2022/01/01 00:55:30.000   46.220697221  -64.551994894   -16.8945   5   7   3.0187   2.0185   6.2360  -1.5273   0.3378  -2.2837   0.00    0.0
2022/01/01 00:56:00.000   46.220700005  -64.551998156   -17.9832   5   7   3.0266   2.0210   6.2150  -1.5378   0.4933  -2.3210   0.00    0.0
2022/01/01 00:56:30.000   46.220700470  -64.551998776   -17.6485   5   7   3.0349   2.0236   6.1947  -1.5486   0.6097  -2.3576   0.00    0.0
2022/01/01 00:57:00.000   46.220702864  -64.551998273   -18.8053   5   7   3.0434   2.0265   6.1751  -1.5597   0.7066  -2.3936   0.00    0.0
2022/01/01 00:57:30.000   46.220698221  -64.551996518   -18.5282   5   7   3.0522   2.0296   6.1562  -1.5711   0.7913  -2.4291   0.00    0.0
2022/01/01 00:58:00.000   46.220695609  -64.551996915   -16.8398   5   7   3.0612   2.0329   6.1380  -1.5827   0.8674  -2.4640   0.00    0.0
2022/01/01 00:58:30.000   46.220693227  -64.551994431   -17.3137   5   7   3.0705   2.0365   6.1205  -1.5946   0.9370  -2.4984   0.00    0.0
2022/01/01 00:59:00.000   46.220695119  -64.551996366   -16.9739   5   7   3.0800   2.0403   6.1036  -1.6068   1.0015  -2.5323   0.00    0.0
2022/01/01 00:59:30.000   46.220697039  -64.551997333   -17.1444   5   7   3.0898   2.0443   6.0875  -1.6192   1.0619  -2.5658   0.00    0.0
2022/01/01 01:00:00.000   46.220699243  -64.551997788   -16.9230   5   7   3.1129   2.1009   6.1290  -1.5906   1.2809  -2.5527   0.00    0.0
2022/01/01 01:00:30.000   46.220698419  -64.552003469   -16.9024   5   7   3.1234   2.1054   6.1115  -1.6034   1.3247  -2.5866   0.00    0.0
2022/01/01 01:01:00.000   46.220695090  -64.552003241   -17.2593   5   7   3.1342   2.1100   6.0946  -1.6165   1.3669  -2.6202   0.00    0.0
2022/01/01 01:01:30.000   46.220694469  -64.551996548   -17.0415   5   7   3.1453   2.1148   6.0785  -1.6298   1.4078  -2.6533   0.00    0.0
2022/01/01 01:02:00.000   46.220692569  -64.551993554   -16.5741   5   7   3.1566   2.1199   6.0630  -1.6434   1.4474  -2.6861   0.00    0.0
2022/01/01 01:02:30.000   46.220693195  -64.552004580   -16.2537   5   7   3.1681   2.1251   6.0483  -1.6571   1.4858  -2.7185   0.00    0.0
2022/01/01 01:03:00.000   46.220694097  -64.552004546   -16.4643   5   7   3.1800   2.1305   6.0342  -1.6711   1.5233  -2.7506   0.00    0.0
2022/01/01 01:03:30.000   46.220693439  -64.551997768   -15.8717   5   7   3.1921   2.1361   6.0209  -1.6854   1.5598  -2.7824   0.00    0.0
2022/01/01 01:04:00.000   46.220696896  -64.552003073   -16.8065   5   7   3.2045   2.1419   6.0082  -1.6999   1.5954  -2.8139   0.00    0.0
2022/01/01 01:04:30.000   46.220700627  -64.551997028   -17.0347   5   7   3.2171   2.1478   5.9962  -1.7146   1.6303  -2.8452   0.00    0.0
2022/01/01 01:05:00.000   46.220690692  -64.551998216   -17.3717   5   7   3.2300   2.1540   5.9849  -1.7295   1.6644  -2.8761   0.00    0.0
2022/01/01 01:05:30.000   46.220693759  -64.551996684   -16.5565   5   7   3.2431   2.1604   5.9742  -1.7446   1.6979  -2.9069   0.00    0.0
2022/01/01 01:06:00.000   46.220700281  -64.552002136   -16.4273   5   7   3.2565   2.1669   5.9642  -1.7600   1.7308  -2.9374   0.00    0.0
2022/01/01 01:06:30.000   46.220691835  -64.551996084   -16.9965   5   7   3.2702   2.1737   5.9548  -1.7755   1.7631  -2.9677   0.00    0.0
2022/01/01 01:07:00.000   46.220693770  -64.552004640   -15.9895   5   7   3.2841   2.1806   5.9461  -1.7913   1.7949  -2.9978   0.00    0.0
2022/01/01 01:07:30.000   46.220699050  -64.552003559   -17.1732   5   7   3.2983   2.1877   5.9379  -1.8073   1.8262  -3.0277   0.00    0.0
2022/01/01 01:08:00.000   46.220692504  -64.552001055   -16.9296   5   7   3.3127   2.1950   5.9304  -1.8235   1.8571  -3.0574   0.00    0.0
2022/01/01 01:08:30.000   46.220696843  -64.551995353   -18.3441   5   7   3.3274   2.2025   5.9235  -1.8399   1.8875  -3.0870   0.00    0.0
2022/01/01 01:09:00.000   46.220700637  -64.552002994   -16.5374   5   7   3.3423   2.2102   5.9172  -1.8566   1.9176  -3.1165   0.00    0.0
2022/01/01 01:09:30.000   46.220703711  -64.552004531   -16.4112   5   7   3.3574   2.2181   5.9115  -1.8734   1.9474  -3.1458   0.00    0.0
2022/01/01 01:10:00.000   46.220703067  -64.552001446   -16.3050   5   7   3.3729   2.2262   5.9064  -1.8904   1.9768  -3.1749   0.00    0.0
2022/01/01 01:10:30.000   46.220696651  -64.552006976   -15.8398   5   7   3.3885   2.2345   5.9018  -1.9076   2.0059  -3.2039   0.00    0.0
2022/01/01 01:11:00.000   46.220700804  -64.552005351   -17.1570   5   7   3.4044   2.2430   5.8978  -1.9250   2.0348  -3.2329   0.00    0.0
2022/01/01 01:11:30.000   46.220698625  -64.551997436   -16.1636   5   8   3.0717   1.8824   4.6113  -1.3838  -0.5276  -2.2614   0.00    0.0
2022/01/01 01:12:00.000   46.220696517  -64.551999007   -16.4188   5   8   3.0768   1.8820   4.6078  -1.3877  -0.4706  -2.2813   0.00    0.0
2022/01/01 01:12:30.000   46.220705119  -64.551999588   -17.7887   5   8   3.0819   1.8817   4.6046  -1.3917  -0.4060  -2.3010   0.00    0.0
2022/01/01 01:13:00.000   46.220692894  -64.551994516   -16.6496   5   8   3.0871   1.8815   4.6015  -1.3959  -0.3293  -2.3205   0.00    0.0
2022/01/01 01:13:30.000   46.220693993  -64.552000271   -15.6438   5   8   3.0923   1.8813   4.5986  -1.4001  -0.2287  -2.3398   0.00    0.0
2022/01/01 01:14:00.000   46.220690444  -64.551993628   -16.0694   5   8   3.0977   1.8813   4.5959  -1.4045   0.0596  -2.3589   0.00    0.0
2022/01/01 01:14:30.000   46.220698287  -64.551999104   -16.4764   5   8   3.1030   1.8813   4.5934  -1.4089   0.2432  -2.3777   0.00    0.0
2022/01/01 01:15:00.000   46.220700658  -64.552001954   -16.1664   5   8   3.1085   1.8815   4.5911  -1.4135   0.3384  -2.3964   0.00    0.0
2022/01/01 01:15:30.000   46.220707410  -64.552004559   -17.5867   5   8   3.1140   1.8817   4.5889  -1.4181   0.4119  -2.4149   0.00    0.0
2022/01/01 01:16:00.000   46.220694825  -64.552000736   -14.8766   5   8   3.1195   1.8820   4.5870  -1.4229   0.4739  -2.4331   0.00    0.0
2022/01/01 01:16:30.000   46.220702081  -64.552003125   -16.3430   5   9   2.8723   1.6529   4.4962  -0.9640   1.0433  -2.6673   0.00    0.0
2022/01/01 01:17:00.000   46.220691564  -64.552000541   -15.7595   5   9   2.8759   1.6532   4.5014  -0.9681   1.0543  -2.6766   0.00    0.0
2022/01/01 01:17:30.000   46.220701544  -64.552001855   -16.6804   5   9   2.8794   1.6535   4.5065  -0.9722   1.0651  -2.6858   0.00    0.0
2022/01/01 01:18:00.000   46.220687932  -64.552002698   -16.0237   5   9   2.8829   1.6539   4.5115  -0.9763   1.0757  -2.6947   0.00    0.0
2022/01/01 01:18:30.000   46.220691506  -64.551998480   -15.7114   5   9   2.8864   1.6542   4.5163  -0.9804   1.0862  -2.7036   0.00    0.0
2022/01/01 01:19:00.000   46.220697977  -64.551999823   -16.1402   5   9   2.8898   1.6547   4.5210  -0.9844   1.0964  -2.7122   0.00    0.0
2022/01/01 01:19:30.000   46.220695755  -64.552005680   -15.7876   5   9   2.8932   1.6551   4.5256  -0.9884   1.1065  -2.7207   0.00    0.0
2022/01/01 01:20:00.000   46.220691696  -64.552002470   -16.2368   5   9   2.8965   1.6556   4.5300  -0.9924   1.1164  -2.7291   0.00    0.0
2022/01/01 01:20:30.000   46.220697269  -64.551997679   -16.8007   5   9   2.8998   1.6561   4.5342  -0.9964   1.1261  -2.7372   0.00    0.0
2022/01/01 01:21:00.000   46.220702519  -64.552005175   -16.6883   5   9   2.9031   1.6567   4.5383  -1.0003   1.1357  -2.7452   0.00    0.0
2022/01/01 01:21:30.000   46.220702542  -64.552003023   -16.5893   5   9   2.9063   1.6573   4.5422  -1.0042   1.1451  -2.7530   0.00    0.0
2022/01/01 01:22:00.000   46.220703243  -64.552007432   -16.4458   5   9   2.9094   1.6579   4.5459  -1.0081   1.1543  -2.7606   0.00    0.0
2022/01/01 01:22:30.000   46.220697066  -64.552007119   -15.7749   5   9   2.9125   1.6585   4.5495  -1.0119   1.1633  -2.7680   0.00    0.0
2022/01/01 01:23:00.000   46.220694652  -64.552004632   -14.9831   5   9   2.9156   1.6592   4.5529  -1.0157   1.1722  -2.7752   0.00    0.0
2022/01/01 01:23:30.000   46.220701151  -64.552011085   -15.6392   5   9   2.9185   1.6599   4.5561  -1.0194   1.1809  -2.7823   0.00    0.0
2022/01/01 01:24:00.000   46.220692626  -64.552001506   -15.2026   5   9   2.9214   1.6607   4.5591  -1.0231   1.1895  -2.7891   0.00    0.0
2022/01/01 01:24:30.000   46.220695898  -64.552001095   -15.9381   5   9   2.9243   1.6615   4.5619  -1.0268   1.1979  -2.7957   0.00    0.0
2022/01/01 01:25:00.000   46.220694282  -64.552004467   -15.6635   5   9   2.9270   1.6623   4.5646  -1.0304   1.2061  -2.8021   0.00    0.0
2022/01/01 01:25:30.000   46.220697905  -64.552009361   -15.8995   5   9   2.9297   1.6631   4.5670  -1.0340   1.2142  -2.8083   0.00    0.0
2022/01/01 01:26:00.000   46.220699496  -64.552005617   -15.9301   5   9   2.9323   1.6640   4.5692  -1.0375   1.2221  -2.8143   0.00    0.0
2022/01/01 01:26:30.000   46.220696324  -64.552000071   -16.1321   5   9   2.9349   1.6649   4.5712  -1.0410   1.2299  -2.8201   0.00    0.0
2022/01/01 01:27:00.000   46.220705388  -64.552004915   -16.6926   5   8   3.3126   1.6665   4.6012  -1.0092   1.2471  -2.6844   0.00    0.0
2022/01/01 01:27:30.000   46.220700618  -64.552001729   -16.7714   5   8   3.3103   1.6675   4.6046  -1.0115   1.2553  -2.6862   0.00    0.0
2022/01/01 01:28:00.000   46.220691139  -64.552001545   -16.0049   5   8   3.3080   1.6685   4.6079  -1.0137   1.2633  -2.6879   0.00    0.0
2022/01/01 01:28:30.000   46.220700402  -64.552001687   -17.1910   5   8   3.3057   1.6696   4.6110  -1.0158   1.2711  -2.6893   0.00    0.0
2022/01/01 01:29:00.000   46.220699856  -64.552005910   -16.6638   5   8   3.3032   1.6707   4.6139  -1.0179   1.2789  -2.6907   0.00    0.0
2022/01/01 01:29:30.000   46.220697773  -64.552004992   -17.1543   5   8   3.3006   1.6719   4.6167  -1.0200   1.2865  -2.6918   0.00    0.0
2022/01/01 01:30:00.000   46.220703278  -64.551999618   -16.6804   5   8   3.2980   1.6730   4.6194  -1.0220   1.2940  -2.6928   0.00    0.0
2022/01/01 01:30:30.000   46.220699581  -64.552002993   -16.2072   5   8   3.2952   1.6742   4.6218  -1.0239   1.3014  -2.6936   0.00    0.0
2022/01/01 01:31:00.000   46.220693538  -64.552006196   -15.8389   5   8   3.2924   1.6755   4.6241  -1.0259   1.3086  -2.6942   0.00    0.0
2022/01/01 01:31:30.000   46.220701175  -64.552001170   -16.7157   5   8   3.2895   1.6767   4.6262  -1.0277   1.3158  -2.6947   0.00    0.0
2022/01/01 01:32:00.000   46.220695605  -64.552004325   -15.3066   5   8   3.2865   1.6780   4.6282  -1.0296   1.3228  -2.6949   0.00    0.0
2022/01/01 01:32:30.000   46.220702000  -64.552005541   -16.2122   5   8   3.2835   1.6794   4.6299  -1.0313   1.3297  -2.6950   0.00    0.0
2022/01/01 01:33:00.000   46.220692709  -64.551997968   -15.5864   5   8   3.2803   1.6807   4.6315  -1.0331   1.3365  -2.6950   0.00    0.0
2022/01/01 01:33:30.000   46.220701036  -64.551999867   -16.7481   5   8   3.2771   1.6821   4.6329  -1.0348   1.3431  -2.6947   0.00    0.0
2022/01/01 01:34:00.000   46.220697337  -64.552002732   -16.1901   5   8   3.2738   1.6835   4.6341  -1.0364   1.3497  -2.6943   0.00    0.0
2022/01/01 01:34:30.000   46.220699027  -64.552003745   -16.3836   5   8   3.2704   1.6849   4.6352  -1.0380   1.3561  -2.6937   0.00    0.0
2022/01/01 01:35:00.000   46.220683744  -64.552006474   -12.8765   5   7   3.8826   1.9636   6.2388   1.0147  -1.5308  -4.0014   0.00    0.0
2022/01/01 01:35:30.000   46.220686694  -64.552004885   -14.9088   5   7   3.8711   1.9618   6.2405   0.9990  -1.5175  -3.9930   0.00    0.0
2022/01/01 01:36:00.000   46.220684684  -64.552005649   -13.5993   5   7   3.8595   1.9601   6.2417   0.9831  -1.5040  -3.9842   0.00    0.0
2022/01/01 01:36:30.000   46.220696305  -64.552009520   -14.9705   5   7   3.8478   1.9584   6.2424   0.9671  -1.4903  -3.9750   0.00    0.0
2022/01/01 01:37:00.000   46.220687678  -64.552012892   -13.9042   5   7   3.8359   1.9567   6.2425   0.9508  -1.4764  -3.9654   0.00    0.0
2022/01/01 01:37:30.000   46.220677841  -64.552003412   -13.2002   5   7   3.8238   1.9551   6.2422   0.9343  -1.4623  -3.9554   0.00    0.0
2022/01/01 01:38:00.000   46.220692590  -64.552012086   -14.1151   5   7   3.8117   1.9536   6.2413   0.9176  -1.4480  -3.9450   0.00    0.0
2022/01/01 01:38:30.000   46.220700922  -64.552012685   -15.2775   5   7   3.7994   1.9521   6.2399   0.9006  -1.4335  -3.9343   0.00    0.0
2022/01/01 01:39:00.000   46.220687102  -64.552006751   -14.1174   5   7   3.7870   1.9507   6.2379   0.8834  -1.4188  -3.9231   0.00    0.0
2022/01/01 01:39:30.000   46.220686229  -64.552007139   -13.6643   5   7   3.7745   1.9494   6.2355   0.8660  -1.4038  -3.9116   0.00    0.0
2022/01/01 01:40:00.000   46.220690866  -64.552005999   -14.3527   5   7   3.7619   1.9481   6.2325   0.8483  -1.3887  -3.8997   0.00    0.0
2022/01/01 01:40:30.000   46.220687056  -64.552002987   -13.8673   5   7   3.7492   1.9468   6.2290   0.8304  -1.3733  -3.8875   0.00    0.0
2022/01/01 01:41:00.000   46.220684566  -64.552006989   -13.2721   5   7   3.7364   1.9457   6.2250   0.8122  -1.3577  -3.8748   0.00    0.0
2022/01/01 01:41:30.000   46.220690716  -64.552007413   -15.1086   5   7   3.7235   1.9446   6.2204   0.7936  -1.3419  -3.8619   0.00    0.0
2022/01/01 01:42:00.000   46.220682768  -64.552007606   -14.0363   5   7   3.7106   1.9435   6.2154   0.7748  -1.3259  -3.8485   0.00    0.0
2022/01/01 01:42:30.000   46.220690800  -64.552006425   -14.4323   5   7   3.6975   1.9425   6.2099   0.7556  -1.3096  -3.8349   0.00    0.0
2022/01/01 01:43:00.000   46.220690190  -64.552010194   -13.5929   5   7   3.6844   1.9416   6.2039   0.7360  -1.2931  -3.8208   0.00    0.0
2022/01/01 01:43:30.000   46.220685546  -64.552013133   -13.4740   5   7   3.6712   1.9407   6.1974   0.7161  -1.2764  -3.8065   0.00    0.0
2022/01/01 01:44:00.000   46.220693438  -64.552010943   -14.1779   5   7   3.6580   1.9398   6.1904   0.6957  -1.2595  -3.7918   0.00    0.0
2022/01/01 01:44:30.000   46.220686165  -64.552011147   -14.5589   5   7   3.6447   1.9391   6.1830   0.6749  -1.2423  -3.7769   0.00    0.0
2022/01/01 01:45:00.000   46.220692221  -64.552010635   -14.6483   5   7   3.6313   1.9384   6.1750   0.6536  -1.2249  -3.7616   0.00    0.0
2022/01/01 01:45:30.000   46.220687675  -64.552009053   -13.7319   5   7   3.6180   1.9377   6.1667   0.6318  -1.2072  -3.7460   0.00    0.0
2022/01/01 01:46:00.000   46.220685619  -64.552011302   -14.1269   5   7   3.6045   1.9372   6.1578   0.6093  -1.1893  -3.7302   0.00    0.0
2022/01/01 01:46:30.000   46.220695648  -64.552011829   -14.4014   5   7   3.5911   1.9366   6.1486   0.5862  -1.1711  -3.7140   0.00    0.0
2022/01/01 01:47:00.000   46.220687061  -64.552009085   -14.2335   5   7   3.5776   1.9362   6.1389   0.5624  -1.1527  -3.6976   0.00    0.0
2022/01/01 01:47:30.000   46.220692398  -64.552002925   -15.6362   5   7   3.5641   1.9358   6.1287   0.5377  -1.1340  -3.6809   0.00    0.0
2022/01/01 01:48:00.000   46.220690510  -64.552010703   -14.3600   5   7   3.5507   1.9354   6.1182   0.5121  -1.1150  -3.6640   0.00    0.0
2022/01/01 01:48:30.000   46.220685060  -64.552008794   -13.2306   5   7   3.5372   1.9352   6.1073   0.4854  -1.0957  -3.6468   0.00    0.0
2022/01/01 01:49:00.000   46.220693704  -64.552006544   -14.5290   5   7   3.5237   1.9349   6.0959   0.4574  -1.0761  -3.6294   0.00    0.0
2022/01/01 01:49:30.000   46.220689848  -64.552004240   -14.6406   5   7   3.5102   1.9348   6.0842   0.4279  -1.0562  -3.6118   0.00    0.0
2022/01/01 01:50:00.000   46.220690354  -64.552010352   -13.6375   5   7   3.4968   1.9347   6.0721   0.3964  -1.0360  -3.5939   0.00    0.0
2022/01/01 01:50:30.000   46.220685972  -64.552011020   -13.4353   5   7   3.4833   1.9346   6.0597   0.3626  -1.0155  -3.5759   0.00    0.0
2022/01/01 01:51:00.000   46.220691466  -64.552010091   -13.8062   5   7   3.4699   1.9347   6.0469   0.3258  -0.9946  -3.5576   0.00    0.0
2022/01/01 01:51:30.000   46.220690348  -64.552011676   -14.2632   5   7   3.4565   1.9348   6.0337   0.2846  -0.9733  -3.5392   0.00    0.0
2022/01/01 01:52:00.000   46.220690254  -64.552010655   -14.3414   5   7   3.4432   1.9349   6.0202   0.2369  -0.9517  -3.5205   0.00    0.0
2022/01/01 01:52:30.000   46.220689285  -64.552004834   -14.6779   5   7   3.4299   1.9351   6.0065   0.1775  -0.9296  -3.5018   0.00    0.0
2022/01/01 01:53:00.000   46.220688162  -64.552005321   -13.7612   5   7   3.4167   1.9354   5.9924   0.0844  -0.9071  -3.4828   0.00    0.0
2022/01/01 01:53:30.000   46.220692171  -64.552006874   -13.9808   5   7   3.4035   1.9357   5.9780  -0.1303  -0.8841  -3.4637   0.00    0.0
2022/01/01 01:54:00.000   46.220684018  -64.552011443   -13.6268   5   7   3.3904   1.9361   5.9633  -0.2021  -0.8607  -3.4445   0.00    0.0
2022/01/01 01:54:30.000   46.220689023  -64.552006844   -14.3592   5   7   3.3774   1.9365   5.9484  -0.2538  -0.8367  -3.4251   0.00    0.0
2022/01/01 01:55:00.000   46.220690308  -64.552008476   -14.9742   5   7   3.3644   1.9370   5.9332  -0.2963  -0.8121  -3.4056   0.00    0.0
2022/01/01 01:55:30.000   46.220690888  -64.552005198   -13.6384   5   7   3.3515   1.9376   5.9177  -0.3329  -0.7869  -3.3860   0.00    0.0
2022/01/01 01:56:00.000   46.220693483  -64.552003799   -15.0606   5   7   3.3387   1.9382   5.9021  -0.3656  -0.7609  -3.3663   0.00    0.0
2022/01/01 01:56:30.000   46.220688417  -64.552009847   -15.2427   5   7   3.3259   1.9389   5.8862  -0.3953  -0.7343  -3.3466   0.00    0.0
2022/01/01 01:57:00.000   46.220686564  -64.552002705   -15.1288   5   7   3.3133   1.9397   5.8701  -0.4226  -0.7067  -3.3267   0.00    0.0
2022/01/01 01:57:30.000   46.220690927  -64.552006230   -15.6403   5   7   3.3008   1.9405   5.8538  -0.4480  -0.6783  -3.3067   0.00    0.0
2022/01/01 01:58:00.000   46.220686443  -64.552000601   -14.1353   5   7   3.2883   1.9414   5.8373  -0.4717  -0.6487  -3.2867   0.00    0.0
2022/01/01 01:58:30.000   46.220691333  -64.552007612   -15.3323   5   7   3.2760   1.9423   5.8206  -0.4941  -0.6180  -3.2666   0.00    0.0
2022/01/01 01:59:00.000   46.220691249  -64.552007517   -14.5355   5   7   3.2638   1.9433   5.8037  -0.5153  -0.5858  -3.2465   0.00    0.0
2022/01/01 01:59:30.000   46.220690127  -64.552005192   -14.5236   5   7   3.2517   1.9444   5.7868  -0.5354  -0.5520  -3.2264   0.00    0.0
2022/01/01 02:00:00.000   46.220691489  -64.552003911   -15.4156   5   7   3.2397   1.9455   5.7696  -0.5545  -0.5162  -3.2062   0.00    0.0
2022/01/01 02:00:30.000   46.220690988  -64.552005653   -15.0197   5   7   3.2278   1.9467   5.7524  -0.5729  -0.4779  -3.1859   0.00    0.0
2022/01/01 02:01:00.000   46.220692229  -64.551999181   -14.3919   5   7   3.2160   1.9479   5.7350  -0.5904  -0.4366  -3.1657   0.00    0.0
2022/01/01 02:01:30.000   46.220692657  -64.552003413   -15.2916   5   7   3.2044   1.9492   5.7175  -0.6073  -0.3913  -3.1454   0.00    0.0
2022/01/01 02:02:00.000   46.220686610  -64.552003890   -14.5168   5   7   3.1929   1.9506   5.6999  -0.6235  -0.3403  -3.1252   0.00    0.0
2022/01/01 02:02:30.000   46.220690501  -64.552002084   -14.7825   5   7   3.1815   1.9520   5.6822  -0.6392  -0.2807  -3.1049   0.00    0.0
2022/01/01 02:03:00.000   46.220694206  -64.552007142   -15.8995   5   7   3.1702   1.9535   5.6644  -0.6543  -0.2048  -3.0847   0.00    0.0
2022/01/01 02:03:30.000   46.220693501  -64.552007840   -14.5829   5   7   3.1591   1.9551   5.6466  -0.6690  -0.0733  -3.0645   0.00    0.0
2022/01/01 02:04:00.000   46.220686012  -64.552000770   -13.8626   5   7   3.1482   1.9567   5.6287  -0.6831   0.1760  -3.0443   0.00    0.0
2022/01/01 02:04:30.000   46.220692214  -64.552005227   -14.7804   5   7   3.1373   1.9584   5.6108  -0.6968   0.2590  -3.0241   0.00    0.0
2022/01/01 02:05:00.000   46.220688747  -64.552003740   -15.4893   5   7   3.1266   1.9601   5.5928  -0.7102   0.3209  -3.0040   0.00    0.0
2022/01/01 02:05:30.000   46.220689859  -64.552003092   -14.7354   5   7   3.1161   1.9619   5.5748  -0.7231   0.3724  -2.9839   0.00    0.0
2022/01/01 02:06:00.000   46.220688458  -64.552005496   -15.3035   5   7   3.1057   1.9638   5.5567  -0.7357   0.4173  -2.9639   0.00    0.0
2022/01/01 02:06:30.000   46.220696009  -64.552004760   -14.7857   5   7   3.0954   1.9657   5.5387  -0.7480   0.4576  -2.9439   0.00    0.0
2022/01/01 02:07:00.000   46.220692789  -64.551998474   -14.4541   5   7   3.0853   1.9677   5.5206  -0.7599   0.4944  -2.9240   0.00    0.0
2022/01/01 02:07:30.000   46.220695005  -64.551999408   -14.5617   5   7   3.0754   1.9697   5.5026  -0.7716   0.5285  -2.9041   0.00    0.0
2022/01/01 02:08:00.000   46.220696989  -64.552002153   -15.0114   5   7   3.0656   1.9718   5.4845  -0.7829   0.5603  -2.8843   0.00    0.0
2022/01/01 02:08:30.000   46.220688865  -64.552003281   -15.6595   5   7   3.0559   1.9740   5.4665  -0.7940   0.5902  -2.8646   0.00    0.0
2022/01/01 02:09:00.000   46.220695453  -64.551999534   -14.1384   5   7   3.0464   1.9762   5.4485  -0.8049   0.6186  -2.8450   0.00    0.0
2022/01/01 02:09:30.000   46.220691606  -64.552001505   -14.8060   5   7   3.0371   1.9785   5.4306  -0.8155   0.6455  -2.8255   0.00    0.0
2022/01/01 02:10:00.000   46.220688008  -64.552006048   -15.6680   5   8   2.9827   1.9072   5.0828  -0.9804  -0.7385  -2.9738   0.00    0.0
2022/01/01 02:10:30.000   46.220694709  -64.552011477   -16.0333   5   7   3.2041   1.9138   5.2674  -0.8992  -0.5519  -2.6505   0.00    0.0
2022/01/01 02:11:00.000   46.220692490  -64.552004641   -16.7161   5   7   3.1916   1.9145   5.2664  -0.9142  -0.5208  -2.6229   0.00    0.0
2022/01/01 02:11:30.000   46.220688524  -64.552000660   -14.9350   5   7   3.1794   1.9154   5.2657  -0.9286  -0.4880  -2.5954   0.00    0.0
2022/01/01 02:12:00.000   46.220687656  -64.552002773   -15.5349   5   7   3.1675   1.9163   5.2654  -0.9427  -0.4530  -2.5678   0.00    0.0
2022/01/01 02:12:30.000   46.220689481  -64.552004579   -16.7877   5   7   3.1560   1.9172   5.2654  -0.9563  -0.4152  -2.5403   0.00    0.0
2022/01/01 02:13:00.000   46.220688016  -64.552009252   -15.5059   5   7   3.1447   1.9183   5.2657  -0.9696  -0.3739  -2.5127   0.00    0.0
2022/01/01 02:13:30.000   46.220688146  -64.552002920   -16.1293   5   7   3.1338   1.9193   5.2662  -0.9825  -0.3277  -2.4850   0.00    0.0
2022/01/01 02:14:00.000   46.220681246  -64.552004773   -15.5545   5   7   3.1232   1.9205   5.2671  -0.9951  -0.2739  -2.4574   0.00    0.0
2022/01/01 02:14:30.000   46.220691745  -64.552007850   -16.6114   5   7   3.1129   1.9217   5.2683  -1.0074  -0.2069  -2.4297   0.00    0.0
2022/01/01 02:15:00.000   46.220690046  -64.551999790   -16.3639   5   7   3.1029   1.9229   5.2698  -1.0193  -0.1032  -2.4019   0.00    0.0
2022/01/01 02:15:30.000   46.220684647  -64.552006211   -16.3766   5   7   3.0932   1.9242   5.2716  -1.0310   0.1464  -2.3741   0.00    0.0
2022/01/01 02:16:00.000   46.220691584  -64.552003519   -16.3515   5   7   3.0838   1.9256   5.2736  -1.0424   0.2312  -2.3462   0.00    0.0
2022/01/01 02:16:30.000   46.220689049  -64.552012952   -16.4721   5   7   3.0747   1.9270   5.2760  -1.0536   0.2923  -2.3182   0.00    0.0
2022/01/01 02:17:00.000   46.220693301  -64.552003244   -15.7028   5   7   3.0659   1.9285   5.2786  -1.0645   0.3426  -2.2902   0.00    0.0
2022/01/01 02:17:30.000   46.220687827  -64.552003566   -16.6201   5   7   3.0574   1.9300   5.2815  -1.0751   0.3865  -2.2620   0.00    0.0
2022/01/01 02:18:00.000   46.220687654  -64.552006759   -16.5379   5   7   3.0492   1.9316   5.2846  -1.0855   0.4259  -2.2337   0.00    0.0
2022/01/01 02:18:30.000   46.220683130  -64.552006248   -16.3902   5   7   3.0412   1.9333   5.2880  -1.0957   0.4619  -2.2053   0.00    0.0
2022/01/01 02:19:00.000   46.220691278  -64.552003438   -17.0419   5   7   3.0336   1.9350   5.2917  -1.1057   0.4954  -2.1768   0.00    0.0
2022/01/01 02:19:30.000   46.220694276  -64.552000671   -15.9744   5   7   3.0262   1.9368   5.2957  -1.1155   0.5268  -2.1481   0.00    0.0
2022/01/01 02:20:00.000   46.220685743  -64.552006025   -16.4821   5   7   3.0191   1.9386   5.2998  -1.1252   0.5566  -2.1193   0.00    0.0
2022/01/01 02:20:30.000   46.220690301  -64.552004131   -16.0014   5   7   3.0123   1.9405   5.3043  -1.1346   0.5849  -2.0903   0.00    0.0
2022/01/01 02:21:00.000   46.220680397  -64.552002888   -16.8802   5   7   3.0057   1.9424   5.3090  -1.1438   0.6120  -2.0612   0.00    0.0
2022/01/01 02:21:30.000   46.220685740  -64.551997166   -15.8423   5   7   2.9994   1.9444   5.3139  -1.1529   0.6381  -2.0318   0.00    0.0
2022/01/01 02:22:00.000   46.220689494  -64.551999655   -16.2399   5   7   2.9934   1.9465   5.3190  -1.1618   0.6632  -2.0023   0.00    0.0
2022/01/01 02:22:30.000   46.220689234  -64.552004728   -16.6056   5   7   2.9876   1.9486   5.3244  -1.1706   0.6876  -1.9726   0.00    0.0
2022/01/01 02:23:00.000   46.220695756  -64.552006158   -16.1974   5   7   2.9821   1.9508   5.3299  -1.1792   0.7112  -1.9426   0.00    0.0
2022/01/01 02:23:30.000   46.220689359  -64.552007244   -15.9192   5   7   2.9769   1.9530   5.3357  -1.1876   0.7342  -1.9124   0.00    0.0
2022/01/01 02:24:00.000   46.220684906  -64.552001674   -15.4683   5   7   2.9719   1.9553   5.3417  -1.1959   0.7567  -1.8820   0.00    0.0
2022/01/01 02:24:30.000   46.220689712  -64.552001959   -16.0452   5   7   2.9671   1.9576   5.3479  -1.2041   0.7787  -1.8512   0.00    0.0
2022/01/01 02:25:00.000   46.220685497  -64.552001731   -16.6656   5   7   2.9626   1.9600   5.3543  -1.2122   0.8002  -1.8202   0.00    0.0
2022/01/01 02:25:30.000   46.220690159  -64.552001149   -16.8338   5   7   2.9584   1.9625   5.3609  -1.2201   0.8213  -1.7890   0.00    0.0
2022/01/01 02:26:00.000   46.220686647  -64.552000078   -15.1465   5   7   2.9544   1.9650   5.3676  -1.2278   0.8421  -1.7573   0.00    0.0
2022/01/01 02:26:30.000   46.220689097  -64.552003817   -17.4406   5   7   2.9506   1.9676   5.3746  -1.2355   0.8625  -1.7254   0.00    0.0
2022/01/01 02:27:00.000   46.220689662  -64.551998099   -15.5021   5   7   2.9471   1.9702   5.3817  -1.2431   0.8827  -1.6931   0.00    0.0
2022/01/01 02:27:30.000   46.220689713  -64.551996953   -16.6828   5   7   2.9437   1.9729   5.3889  -1.2505   0.9025  -1.6605   0.00    0.0
2022/01/01 02:28:00.000   46.220688741  -64.551999757   -16.6202   5   7   2.9407   1.9757   5.3963  -1.2578   0.9222  -1.6274   0.00    0.0
2022/01/01 02:28:30.000   46.220690041  -64.552003738   -16.5698   5   7   2.9378   1.9785   5.4039  -1.2650   0.9416  -1.5939   0.00    0.0
2022/01/01 02:29:00.000   46.220690549  -64.551994816   -16.2682   5   7   2.9351   1.9814   5.4116  -1.2721   0.9608  -1.5600   0.00    0.0
2022/01/01 02:29:30.000   46.220686158  -64.552000748   -16.9715   5   7   2.9327   1.9843   5.4194  -1.2791   0.9799  -1.5256   0.00    0.0
2022/01/01 02:30:00.000   46.220687382  -64.551999091   -17.4594   5   7   2.9305   1.9873   5.4273  -1.2860   0.9988  -1.4907   0.00    0.0
2022/01/01 02:30:30.000   46.220689534  -64.551998812   -15.9439   5   7   2.9285   1.9904   5.4354  -1.2929   1.0176  -1.4553   0.00    0.0
2022/01/01 02:31:00.000   46.220687229  -64.552000229   -16.4176   5   7   2.9267   1.9935   5.4435  -1.2996   1.0362  -1.4193   0.00    0.0
2022/01/01 02:31:30.000   46.220689787  -64.552000838   -16.5287   5   7   2.9251   1.9967   5.4518  -1.3062   1.0547  -1.3828   0.00    0.0
2022/01/01 02:32:00.000   46.220684169  -64.552002545   -16.7043   5   7   2.9236   2.0000   5.4601  -1.3127   1.0731  -1.3455   0.00    0.0
2022/01/01 02:32:30.000   46.220687095  -64.552002808   -16.3092   5   7   2.9224   2.0033   5.4685  -1.3192   1.0915  -1.3076   0.00    0.0
2022/01/01 02:33:00.000   46.220690811  -64.552000813   -17.6505   5   7   2.9214   2.0067   5.4770  -1.3256   1.1097  -1.2689   0.00    0.0
2022/01/01 02:33:30.000   46.220690755  -64.551996990   -16.9189   5   7   2.9205   2.0102   5.4855  -1.3318   1.1279  -1.2294   0.00    0.0
2022/01/01 02:34:00.000   46.220689828  -64.552000149   -17.7058   5   7   2.9198   2.0137   5.4941  -1.3380   1.1461  -1.1890   0.00    0.0
2022/01/01 02:34:30.000   46.220689071  -64.552001772   -17.3228   5   7   2.9193   2.0173   5.5028  -1.3442   1.1642  -1.1476   0.00    0.0
2022/01/01 02:35:00.000   46.220684747  -64.552002144   -18.0795   5   7   2.9190   2.0210   5.5114  -1.3502   1.1822  -1.1052   0.00    0.0
2022/01/01 02:35:30.000   46.220689242  -64.552004075   -17.4796   5   7   2.9188   2.0247   5.5201  -1.3562   1.2002  -1.0615   0.00    0.0
2022/01/01 02:36:00.000   46.220687576  -64.551998068   -16.6790   5   7   2.9188   2.0285   5.5288  -1.3621   1.2182  -1.0166   0.00    0.0
2022/01/01 02:36:30.000   46.220688268  -64.552003560   -18.4402   5   7   2.9189   2.0324   5.5375  -1.3679   1.2362  -0.9701   0.00    0.0
2022/01/01 02:37:00.000   46.220689346  -64.551999932   -17.1771   5   7   2.9192   2.0364   5.5462  -1.3737   1.2541  -0.9220   0.00    0.0
2022/01/01 02:37:30.000   46.220688099  -64.551998372   -16.3983   5   7   2.9197   2.0404   5.5548  -1.3794   1.2721  -0.8719   0.00    0.0
2022/01/01 02:38:00.000   46.220686104  -64.551996217   -16.7327   5   7   2.9202   2.0445   5.5635  -1.3850   1.2900  -0.8194   0.00    0.0
2022/01/01 02:38:30.000   46.220686261  -64.552000077   -17.7863   5   7   2.9210   2.0487   5.5721  -1.3906   1.3080  -0.7643   0.00    0.0
2022/01/01 02:39:00.000   46.220684248  -64.552005990   -17.7158   5   7   2.9218   2.0529   5.5806  -1.3961   1.3259  -0.7057   0.00    0.0
2022/01/01 02:39:30.000   46.220691845  -64.551994030   -16.7601   5   7   2.9228   2.0573   5.5891  -1.4015   1.3438  -0.6429   0.00    0.0
2022/01/01 02:40:00.000   46.220689733  -64.551997652   -17.5297   5   7   2.9238   2.0617   5.5975  -1.4069   1.3618  -0.5744   0.00    0.0
2022/01/01 02:40:30.000   46.220688094  -64.552000054   -17.5460   5   7   2.9250   2.0662   5.6059  -1.4123   1.3798  -0.4980   0.00    0.0
2022/01/01 02:41:00.000   46.220688389  -64.552003718   -17.2957   5   7   2.9263   2.0707   5.6141  -1.4176   1.3978  -0.4094   0.00    0.0
2022/01/01 02:41:30.000   46.220684627  -64.552001497   -17.6317   5   7   2.9278   2.0754   5.6223  -1.4228   1.4158  -0.2978   0.00    0.0
2022/01/01 02:42:00.000   46.220689083  -64.551998429   -16.6955   5   7   2.9293   2.0801   5.6303  -1.4280   1.4338  -0.1064   0.00    0.0
2022/01/01 02:42:30.000   46.220688469  -64.552004206   -17.6406   5   7   2.9309   2.0849   5.6382  -1.4331   1.4518   0.2538   0.00    0.0
2022/01/01 02:43:00.000   46.220691514  -64.551998881   -17.2138   5   7   2.9326   2.0898   5.6460  -1.4382   1.4699   0.3722   0.00    0.0
2022/01/01 02:43:30.000   46.220691469  -64.552004363   -18.2935   5   7   2.9343   2.0948   5.6536  -1.4433   1.4880   0.4593   0.00    0.0
2022/01/01 02:44:00.000   46.220684875  -64.551998164   -17.8687   5   7   2.9362   2.0999   5.6611  -1.4483   1.5061   0.5307   0.00    0.0
2022/01/01 02:44:30.000   46.220690270  -64.552001852   -16.7554   5   7   2.9381   2.1050   5.6684  -1.4533   1.5242   0.5920   0.00    0.0
2022/01/01 02:45:00.000   46.220683414  -64.551999673   -17.5809   5   7   2.9401   2.1103   5.6756  -1.4582   1.5423   0.6462   0.00    0.0
2022/01/01 02:45:30.000   46.220691505  -64.551995336   -17.0175   5   7   2.9421   2.1156   5.6825  -1.4631   1.5605   0.6948   0.00    0.0
2022/01/01 02:46:00.000   46.220681162  -64.551999011   -17.3325   5   7   2.9442   2.1210   5.6893  -1.4680   1.5787   0.7389   0.00    0.0
2022/01/01 02:46:30.000   46.220686444  -64.552002532   -17.3132   5   7   2.9464   2.1266   5.6959  -1.4729   1.5969   0.7793   0.00    0.0
2022/01/01 02:47:00.000   46.220685153  -64.551998006   -17.6711   5   7   2.9486   2.1322   5.7023  -1.4777   1.6151   0.8164   0.00    0.0
2022/01/01 02:47:30.000   46.220691224  -64.552001361   -17.1207   5   7   2.9508   2.1379   5.7084  -1.4825   1.6334   0.8507   0.00    0.0
2022/01/01 02:48:00.000   46.220687475  -64.551993643   -18.9605   5   6   3.0961   2.1848   7.4162  -1.3491   0.8572  -1.9021   0.00    0.0
2022/01/01 02:48:30.000   46.220690068  -64.551998685   -19.1542   5   6   3.0938   2.1889   7.4316  -1.3597   0.9112  -1.8730   0.00    0.0
2022/01/01 02:49:00.000   46.220695326  -64.552002908   -20.1399   5   6   3.0916   2.1931   7.4467  -1.3702   0.9631  -1.8442   0.00    0.0
2022/01/01 02:49:30.000   46.220695990  -64.551997913   -19.7394   5   6   3.0896   2.1975   7.4614  -1.3805   1.0131  -1.8157   0.00    0.0
2022/01/01 02:50:00.000   46.220687156  -64.551998147   -18.9928   5   6   3.0877   2.2019   7.4757  -1.3906   1.0615  -1.7876   0.00    0.0
2022/01/01 02:50:30.000   46.220688830  -64.552001390   -18.4125   5   6   3.0860   2.2065   7.4896  -1.4005   1.1085  -1.7598   0.00    0.0
2022/01/01 02:51:00.000   46.220692168  -64.552006867   -20.4527   5   6   3.0845   2.2113   7.5031  -1.4104   1.1544  -1.7325   0.00    0.0
2022/01/01 02:51:30.000   46.220690369  -64.552002476   -19.3706   5   6   3.0831   2.2161   7.5161  -1.4200   1.1991  -1.7056   0.00    0.0
2022/01/01 02:52:00.000   46.220686969  -64.551999406   -19.7363   5   6   3.0818   2.2211   7.5287  -1.4295   1.2429  -1.6792   0.00    0.0
2022/01/01 02:52:30.000   46.220687490  -64.552002347   -19.5014   5   6   3.0807   2.2263   7.5408  -1.4389   1.2859  -1.6534   0.00    0.0
2022/01/01 02:53:00.000   46.220688996  -64.552000105   -19.1570   5   6   3.0797   2.2316   7.5523  -1.4482   1.3280  -1.6281   0.00    0.0
2022/01/01 02:53:30.000   46.220689857  -64.552000858   -19.9120   5   6   3.0789   2.2370   7.5634  -1.4574   1.3695  -1.6035   0.00    0.0
2022/01/01 02:54:00.000   46.220692325  -64.551998497   -20.0651   5   6   3.0782   2.2426   7.5739  -1.4664   1.4103  -1.5796   0.00    0.0
2022/01/01 02:54:30.000   46.220688565  -64.551997598   -18.1444   5   6   3.0775   2.2483   7.5838  -1.4754   1.4505  -1.5565   0.00    0.0
2022/01/01 02:55:00.000   46.220687527  -64.551996379   -19.9521   5   6   3.0770   2.2542   7.5931  -1.4842   1.4901  -1.5341   0.00    0.0
2022/01/01 02:55:30.000   46.220690158  -64.551996756   -19.6894   5   6   3.0766   2.2602   7.6018  -1.4930   1.5292  -1.5126   0.00    0.0
2022/01/01 02:56:00.000   46.220684255  -64.551994449   -18.3347   5   6   3.0763   2.2664   7.6100  -1.5017   1.5678  -1.4920   0.00    0.0
2022/01/01 02:56:30.000   46.220685915  -64.551999904   -19.4284   5   6   3.0761   2.2727   7.6174  -1.5103   1.6059  -1.4724   0.00    0.0
2022/01/01 02:57:00.000   46.220687616  -64.551998992   -20.4091   5   6   3.0759   2.2792   7.6243  -1.5189   1.6436  -1.4538   0.00    0.0
2022/01/01 02:57:30.000   46.220688050  -64.551996219   -19.5665   5   6   3.0759   2.2859   7.6305  -1.5274   1.6808  -1.4363   0.00    0.0
2022/01/01 02:58:00.000   46.220688930  -64.552000398   -18.8390   5   6   3.0759   2.2927   7.6360  -1.5358   1.7176  -1.4199   0.00    0.0
2022/01/01 02:58:30.000   46.220682412  -64.551997136   -18.6983   5   6   3.0760   2.2997   7.6409  -1.5442   1.7540  -1.4047   0.00    0.0
2022/01/01 02:59:00.000   46.220689610  -64.551993515   -18.5318   5   6   3.0762   2.3068   7.6450  -1.5526   1.7901  -1.3908   0.00    0.0
2022/01/01 02:59:30.000   46.220691056  -64.552001169   -20.5150   5   6   3.0764   2.3141   7.6485  -1.5610   1.8257  -1.3781   0.00    0.0
2022/01/01 03:00:00.000   46.220694415  -64.552005638   -18.7201   5   6   3.0767   2.3216   7.6513  -1.5693   1.8610  -1.3668   0.00    0.0
2022/01/01 03:00:30.000   46.220691745  -64.551999844   -18.0367   5   6   3.0771   2.3293   7.6534  -1.5776   1.8959  -1.3568   0.00    0.0
2022/01/01 03:01:00.000   46.220689067  -64.552003999   -20.7550   5   6   3.0775   2.3371   7.6548  -1.5860   1.9305  -1.3482   0.00    0.0
2022/01/01 03:01:30.000   46.220686181  -64.552000674   -19.6419   5   6   3.0780   2.3451   7.6555  -1.5943   1.9647  -1.3411   0.00    0.0
2022/01/01 03:02:00.000   46.220690637  -64.552002666   -21.0636   5   6   3.0785   2.3533   7.6555  -1.6026   1.9986  -1.3355   0.00    0.0
2022/01/01 03:02:30.000   46.220692815  -64.552001286   -20.4619   5   6   3.0791   2.3617   7.6548  -1.6110   2.0322  -1.3313   0.00    0.0
2022/01/01 03:03:00.000   46.220683888  -64.552003733   -18.2437   5   6   3.0797   2.3703   7.6534  -1.6194   2.0654  -1.3286   0.00    0.0
2022/01/01 03:03:30.000   46.220691583  -64.552002094   -20.0282   5   6   3.0804   2.3790   7.6513  -1.6278   2.0982  -1.3274   0.00    0.0
2022/01/01 03:04:00.000   46.220691861  -64.552004032   -19.4108   5   6   3.0812   2.3879   7.6485  -1.6363   2.1308  -1.3277   0.00    0.0
2022/01/01 03:04:30.000   46.220688337  -64.552000196   -19.2098   5   6   3.0819   2.3970   7.6451  -1.6448   2.1630  -1.3295   0.00    0.0
2022/01/01 03:05:00.000   46.220689027  -64.552006038   -19.5365   5   6   3.0827   2.4062   7.6410  -1.6533   2.1949  -1.3327   0.00    0.0
2022/01/01 03:05:30.000   46.220692769  -64.552002359   -22.0334   5   6   3.0836   2.4157   7.6362  -1.6619   2.2264  -1.3374   0.00    0.0
2022/01/01 03:06:00.000   46.220689393  -64.552004408   -20.0956   5   6   3.0845   2.4253   7.6307  -1.6706   2.2576  -1.3435   0.00    0.0
2022/01/01 03:06:30.000   46.220692168  -64.552003288   -20.2618   5   6   3.0855   2.4351   7.6247  -1.6794   2.2886  -1.3510   0.00    0.0
2022/01/01 03:07:00.000   46.220691137  -64.552007374   -22.0006   5   6   3.0864   2.4451   7.6180  -1.6882   2.3191  -1.3598   0.00    0.0
2022/01/01 03:07:30.000   46.220691242  -64.552007753   -19.7490   5   6   3.0875   2.4553   7.6106  -1.6971   2.3494  -1.3699   0.00    0.0
2022/01/01 03:08:00.000   46.220690844  -64.552002295   -18.1806   5   6   3.0885   2.4656   7.6027  -1.7061   2.3794  -1.3812   0.00    0.0
2022/01/01 03:08:30.000   46.220694516  -64.552005977   -21.2021   5   6   3.0897   2.4762   7.5942  -1.7152   2.4090  -1.3938   0.00    0.0
2022/01/01 03:09:00.000   46.220693457  -64.552009469   -19.0142   5   6   3.0908   2.4869   7.5852  -1.7244   2.4383  -1.4074   0.00    0.0
2022/01/01 03:09:30.000   46.220684884  -64.552008271   -19.4951   5   6   3.0920   2.4978   7.5755  -1.7337   2.4673  -1.4222   0.00    0.0
2022/01/01 03:10:00.000   46.220691433  -64.552007545   -20.4645   5   6   3.0933   2.5089   7.5654  -1.7431   2.4960  -1.4379   0.00    0.0
2022/01/01 03:10:30.000   46.220686510  -64.552002021   -19.0908   5   6   3.0946   2.5201   7.5547  -1.7526   2.5244  -1.4546   0.00    0.0
2022/01/01 03:11:00.000   46.220694825  -64.552010013   -20.6400   5   6   3.0959   2.5315   7.5435  -1.7623   2.5524  -1.4722   0.00    0.0
2022/01/01 03:11:30.000   46.220690025  -64.552001440   -20.4780   5   6   3.0973   2.5431   7.5319  -1.7720   2.5802  -1.4907   0.00    0.0
2022/01/01 03:12:00.000   46.220692279  -64.552006426   -18.9270   5   6   3.0988   2.5549   7.5197  -1.7819   2.6077  -1.5099   0.00    0.0
2022/01/01 03:12:30.000   46.220696120  -64.552001035   -20.6768   5   6   3.1003   2.5669   7.5072  -1.7919   2.6348  -1.5299   0.00    0.0
2022/01/01 03:13:00.000   46.220697005  -64.552009399   -21.0406   5   6   3.1019   2.5790   7.4942  -1.8020   2.6617  -1.5505   0.00    0.0
2022/01/01 03:13:30.000   46.220689308  -64.552006236   -19.4997   5   6   3.1035   2.5913   7.4808  -1.8122   2.6882  -1.5718   0.00    0.0
2022/01/01 03:14:00.000   46.220692016  -64.552005840   -18.3060   5   6   3.1051   2.6037   7.4670  -1.8226   2.7145  -1.5936   0.00    0.0
2022/01/01 03:14:30.000   46.220692296  -64.552011977   -19.8530   5   6   3.1069   2.6163   7.4529  -1.8331   2.7405  -1.6159   0.00    0.0
2022/01/01 03:15:00.000   46.220699000  -64.552014786   -20.5998   5   6   3.1087   2.6291   7.4384  -1.8438   2.7662  -1.6387   0.00    0.0
2022/01/01 03:15:30.000   46.220693728  -64.552008227   -18.7115   5   6   3.1105   2.6421   7.4236  -1.8545   2.7916  -1.6619   0.00    0.0
2022/01/01 03:16:00.000   46.220693155  -64.552007707   -20.1716   5   6   3.1125   2.6552   7.4086  -1.8655   2.8167  -1.6854   0.00    0.0
2022/01/01 03:16:30.000   46.220692192  -64.552011318   -20.5101   5   6   3.1145   2.6685   7.3932  -1.8765   2.8415  -1.7093   0.00    0.0
2022/01/01 03:17:00.000   46.220691876  -64.552011230   -20.8630   5   6   3.1165   2.6819   7.3775  -1.8877   2.8661  -1.7335   0.00    0.0
2022/01/01 03:17:30.000   46.220695997  -64.552011426   -20.8673   5   6   3.1187   2.6955   7.3616  -1.8990   2.8904  -1.7579   0.00    0.0
2022/01/01 03:18:00.000   46.220697297  -64.552013909   -20.0894   5   6   3.1209   2.7092   7.3455  -1.9105   2.9144  -1.7825   0.00    0.0
2022/01/01 03:18:30.000   46.220690465  -64.552009444   -19.7998   5   6   3.1231   2.7231   7.3292  -1.9220   2.9382  -1.8074   0.00    0.0
2022/01/01 03:19:00.000   46.220696808  -64.552013960   -20.4720   5   6   3.1255   2.7372   7.3127  -1.9338   2.9617  -1.8323   0.00    0.0
2022/01/01 03:19:30.000   46.220699934  -64.552013268   -20.1929   5   6   3.1279   2.7513   7.2960  -1.9456   2.9850  -1.8574   0.00    0.0
2022/01/01 03:20:00.000   46.220693259  -64.552003745   -18.9518   5   6   3.1304   2.7657   7.2792  -1.9576   3.0079  -1.8825   0.00    0.0
2022/01/01 03:20:30.000   46.220694672  -64.552009127   -19.2990   5   6   3.1330   2.7801   7.2622  -1.9697   3.0307  -1.9077   0.00    0.0
2022/01/01 03:21:00.000   46.220699731  -64.552013347   -21.8327   5   6   3.1357   2.7947   7.2452  -1.9819   3.0532  -1.9330   0.00    0.0
2022/01/01 03:21:30.000   46.220696878  -64.552014353   -20.4724   5   6   3.1384   2.8095   7.2280  -1.9943   3.0754  -1.9582   0.00    0.0
2022/01/01 03:22:00.000   46.220697412  -64.552017627   -19.9917   5   6   3.1413   2.8244   7.2107  -2.0068   3.0975  -1.9835   0.00    0.0
2022/01/01 03:22:30.000   46.220696237  -64.552008960   -20.6053   5   6   3.1442   2.8394   7.1933  -2.0194   3.1192  -2.0087   0.00    0.0
2022/01/01 03:23:00.000   46.220695222  -64.552011572   -18.3814   5   6   3.1472   2.8545   7.1759  -2.0321   3.1408  -2.0338   0.00    0.0
2022/01/01 03:23:30.000   46.220693661  -64.552015459   -20.8271   5   6   3.1502   2.8697   7.1585  -2.0449   3.1621  -2.0589   0.00    0.0
2022/01/01 03:24:00.000   46.220699068  -64.552014680   -21.5166   5   6   3.1534   2.8851   7.1410  -2.0578   3.1832  -2.0839   0.00    0.0
2022/01/01 03:24:30.000   46.220695787  -64.552007764   -20.0384   5   6   3.1566   2.9006   7.1234  -2.0709   3.2040  -2.1087   0.00    0.0
2022/01/01 03:25:00.000   46.220697964  -64.552015285   -20.1818   5   6   3.1599   2.9162   7.1059  -2.0840   3.2247  -2.1335   0.00    0.0
2022/01/01 03:25:30.000   46.220700959  -64.552014276   -21.1987   5   6   3.1633   2.9319   7.0884  -2.0972   3.2451  -2.1581   0.00    0.0
2022/01/01 03:26:00.000   46.220695665  -64.552006724   -18.8960   5   6   3.1668   2.9478   7.0708  -2.1106   3.2653  -2.1826   0.00    0.0
2022/01/01 03:26:30.000   46.220701272  -64.552018046   -20.4945   5   6   3.1704   2.9637   7.0533  -2.1240   3.2852  -2.2069   0.00    0.0
2022/01/01 03:27:00.000   46.220693128  -64.552015373   -19.0707   5   6   3.1740   2.9797   7.0358  -2.1375   3.3050  -2.2310   0.00    0.0
2022/01/01 03:27:30.000   46.220694699  -64.552009462   -19.0126   5   6   3.1778   2.9959   7.0184  -2.1511   3.3245  -2.2549   0.00    0.0
2022/01/01 03:28:00.000   46.220695981  -64.552010140   -19.1019   5   6   3.1816   3.0121   7.0010  -2.1647   3.3439  -2.2787   0.00    0.0
2022/01/01 03:28:30.000   46.220697212  -64.552010608   -20.1428   5   6   3.1854   3.0284   6.9836  -2.1784   3.3630  -2.3022   0.00    0.0
2022/01/01 03:29:00.000   46.220693819  -64.552012462   -18.8901   5   6   3.1894   3.0448   6.9663  -2.1922   3.3819  -2.3255   0.00    0.0
2022/01/01 03:29:30.000   46.220699734  -64.552018372   -19.7009   5   6   3.1934   3.0612   6.9490  -2.2061   3.4006  -2.3486   0.00    0.0
