     2.11           OBSERVATION DATA    G (GPS)             RINEX VERSION / TYPE
teqc  2017Sep15     Mike Craymer        20220516 16:33:10UTCPGM / RUN BY / DATE
Linux 2.6.32-573.12.1.x86_64|x86_64|gcc -static|Linux 64|=+ COMMENT
   0.100      (antenna height)                              COMMENT
 +46.22068050 (latitude)                                    COMMENT
 -64.55200955 (longitude)                                   COMMENT
-014.185      (elevation)                                   COMMENT
BIT 2 OF LLI FLAGS DATA COLLECTED UNDER A/S CONDITION       COMMENT
SHE2 (COGO code)                                            COMMENT
SHE2                                                        MARKER NAME
40169M002                                                   MARKER NUMBER
MRC                 NRCan/GSD                               OBSERVER / AGENCY
5003K65317          TRIMBLE NETR8       48.01               REC # / TYPE / VERS
4624A17046          TRM29659.00     NONE                    ANT # / TYPE
  1899507.9900 -3991722.3600  4582242.8200                  APPROX POSITION XYZ
        0.1000        0.0000        0.0000                  ANTENNA: DELTA H/E/N
     1     1                                                WAVELENGTH FACT L1/2
     6    L1    L2    C1    P2    S1    S2                  # / TYPES OF OBSERV
    30.0000                                                 INTERVAL
    18                                                      LEAP SECONDS
 SNR is mapped to RINEX snr flag value [0-9]                COMMENT
  L1 & L2: min(max(int(snr_dBHz/6), 0), 9)                  COMMENT
  2022     1     1     0     0    0.0000000     GPS         TIME OF FIRST OBS
                                                            END OF HEADER
 22  1  1  0  0  0.0000000  0 11G13G23G30G17G21G27G08G01G07G14G10
 127981067.281 6  99725542.61042  24353991.148    24353997.371          37.200
        16.900
 135435405.920 6 105534085.60543  25772495.523    25772502.391          38.200
        20.100
 111705242.978 8  87043085.35546  21256793.375    21256801.414          51.000
        41.600
 126741529.218 6  98759753.40443  24118134.188    24118140.117          38.100
        22.800
 109348898.516 8  85206982.36747  20808391.609    20808396.836          50.900
        42.600
 125421276.505 6  97730902.97546  23866854.086    23866862.770          40.400
        36.200
 112343617.729 8  87540574.70648  21378271.539    21378280.281          49.600
        50.900
 111739150.196 8  87069515.01546  21263244.391    21263253.660          48.800
        38.500
 110229534.791 8  85893151.91446  20975970.211    20975975.789          50.700
        41.400
 118692661.207 7  92487713.43045  22586435.523    22586441.219          43.900
        31.900
 131326886.603 6 102332676.66345  24990674.609    24990682.766          39.100
        32.100
 22  1  1  0  0 30.0000000  0 11G13G23G30G17G21G27G08G01G07G14G10
 127982494.243 6  99726654.49242  24354262.695    24354268.156          36.200
        15.600
 135480445.068 7 105569180.98744  25781067.383    25781073.488          42.700
        24.400
 111697908.590 8  87037370.24446  21255397.836    21255405.875          51.200
        41.600
 126653841.174 6  98691425.13743  24101447.164    24101453.211          40.900
        22.300
 109345327.259 8  85204199.58247  20807712.016    20807717.184          51.000
        42.100
 125522117.790 6  97809480.58546  23886043.484    23886051.934          39.900
        36.100
 112411817.444 8  87593717.33748  21391249.695    21391258.438          49.100
        50.800
 111651176.723 8  87000964.28746  21246503.758    21246512.441          48.600
        39.200
 110276409.404 8  85929677.57246  20984890.328    20984895.730          50.600
        41.100
 118607693.878 7  92421505.13545  22570266.313    22570272.066          44.600
        31.800
 131322374.751 6 102329160.95945  24989815.664    24989824.348          39.900
        31.800
 22  1  1  0  1  0.0000000  0 10G13G30G17G21G27G08G01G07G14G10
 127984490.849 6  99728210.31442  24354642.469    24354647.227          36.700
        16.300
 111691174.194 8  87032122.66146  21254116.281    21254124.203          50.300
        41.600
 126566305.678 6  98623215.67743  24084789.336    24084796.027          39.500
        22.200
 109342325.010 8  85201860.17647  20807140.930    20807145.805          49.100
        42.500
 125622998.280 6  97888088.75446  23905241.695    23905249.441          39.000
        36.500
 112480256.751 8  87647046.66348  21404273.438    21404281.711          49.800
        50.700
 111563664.774 8  86932773.18746  21229850.805    21229860.367          48.900
        39.700
 110323827.718 8  85966626.88046  20993913.945    20993919.641          50.300
        41.400
 118522876.011 7  92355413.29245  22554126.227    22554132.215          44.500
        31.700
 131318386.946 6 102326053.56445  24989058.016    24989065.703          39.700
        33.100
 22  1  1  0  1 30.0000000  0 10G13G30G17G21G27G08G01G07G14G10
 127987057.142 6  99730209.99342  24355131.492    24355136.719          37.500
        16.900
 111685041.004 8  87027343.55046  21252949.375    21252956.828          50.600
        41.700
 126478923.904 6  98555126.01243  24068161.617    24068167.664          40.200
        22.500
 109339892.030 8  85199964.35147  20806678.102    20806683.270          50.800
        42.900
 125723917.596 6  97966727.18146  23924445.406    23924453.563          40.100
        36.200
 112548934.762 8  87700561.99348  21417342.398    21417350.320          49.400
        50.600
 111476617.932 8  86864944.50946  21213286.188    21213295.691          48.500
        39.600
 110371789.116 8  86003999.38346  21003040.734    21003046.020          50.500
        41.200
 118438209.802 7  92289439.63645  22538014.852    22538020.605          44.800
        31.800
 131314924.565 6 102323355.62045  24988398.602    24988406.230          37.400
        32.200
 22  1  1  0  2  0.0000000  0 10G13G30G17G21G27G08G01G07G14G10
 127990192.376 6  99732653.02542  24355728.914    24355732.969          36.800
        16.300
 111679509.101 8  87023032.97246  21251896.469    21251904.625          50.900
        41.500
 126391696.199 6  98487156.42543  24051562.969    24051568.957          40.000
        22.600
 109338027.559 8  85198511.53247  20806323.086    20806328.371          50.400
        42.700
 125824873.930 6  98045394.45045  23943656.188    23943664.637          40.200
        35.700
 112617849.527 8  87754261.81048  21430456.703    21430464.566          50.000
        50.500
 111390038.527 8  86797480.06346  21196810.852    21196820.180          48.600
        38.700
 110420291.473 8  86041793.41046  21012270.188    21012275.707          50.900
        40.800
 118353696.370 7  92223585.02345  22521933.031    22521938.258          45.300
        31.900
 131311987.662 6 102321067.13745  24987839.828    24987847.574          37.300
        32.700
 22  1  1  0  2 30.0000000  0 10G13G30G17G21G27G08G01G07G14G10
 127993895.871 6  99735538.89342  24356432.508    24356437.969          37.200
        17.400
 111674578.792 8  87019191.16846  21250958.555    21250966.008          50.300
        41.800
 126304623.400 6  98419307.55644  24034993.039    24034999.203          39.500
        24.100
 109336731.337 8  85197501.49447  20806076.695    20806081.453          49.600
        42.100
 125925866.084 6  98124089.61445  23962874.695    23962882.676          39.500
        35.600
 112686999.517 8  87808144.91348  21443615.047    21443623.379          49.600
        50.300
 111303929.286 8  86730381.98546  21180424.734    21180433.418          49.100
        39.200
 110469333.549 8  86080007.99346  21021602.531    21021608.227          50.400
        40.900
 118269337.188 7  92157850.60745  22505879.422    22505885.527          45.100
        32.100
 131309576.830 6 102319188.56045  24987380.328    24987389.070          36.700
        31.000
 22  1  1  0  3  0.0000000  0 10G13G30G17G21G27G08G01G07G14G10
 127998167.127 6  99738867.15842  24357243.680    24357250.781          36.600
        15.600
 111670250.327 8  87015818.33546  21250134.773    21250142.402          50.900
        41.600
 126217705.995 6  98351579.74243  24018454.453    24018459.328          40.000
        23.300
 109336002.663 8  85196933.70846  20805937.656    20805942.707          50.200
        41.900
 126026892.517 6  98202811.51446  23982099.914    23982107.191          40.200
        36.700
 112756383.021 8  87862209.98148  21456818.211    21456826.836          48.900
        50.100
 111218292.813 8  86663652.29546  21164128.859    21164137.602          49.000
        39.400
 110518913.622 8  86118641.80046  21031037.688    21031043.324          50.600
        41.000
 118185133.625 7  92092237.44545  22489855.539    22489861.645          44.700
        32.300
 131307692.360 6 102317720.13445  24987022.406    24987030.211          37.100
        32.400
 22  1  1  0  3 30.0000000  0 10G13G30G17G21G27G08G01G07G14G10
 128003005.464 6  99742637.27642  24358166.828    24358171.645          37.800
        15.600
 111666524.164 8  87012914.83247  21249426.039    21249433.609          51.500
        42.500
 126130944.468 6  98283973.38443  24001943.461    24001949.625          39.100
        22.300
 109335840.891 8  85196807.66347  20805906.820    20805911.754          50.500
        42.000
 126127952.102 6  98281559.24446  24001331.344    24001338.270          40.300
        36.600
 112825998.265 8  87916455.62748  21470065.867    21470073.965          49.400
        50.200
 111133131.856 8  86597293.13546  21147922.813    21147932.492          49.000
        39.100
 110569030.372 8  86157693.79546  21040574.359    21040579.234          50.600
        41.400
 118101087.236 7  92026746.76245  22473862.406    22473869.215          43.700
        31.900
 131306334.884 6 102316662.37245  24986764.547    24986771.648          39.000
        31.800
 22  1  1  0  4  0.0000000  0 10G13G30G17G21G27G08G01G07G14G10
 128008410.395 6  99746848.88942  24359193.078    24359200.004          36.500
        15.600
 111663400.712 8  87010480.97446  21248831.273    21248839.195          51.200
        41.800
 126044339.723 6  98216489.20644  23985463.102    23985469.090          39.500
        24.800
 109336245.802 8  85197123.18947  20805984.078    20805988.367          50.000
        42.700
 126229043.836 6  98360332.01846  24020568.742    24020575.316          40.900
        36.500
 112895844.312 8  87970881.11148  21483357.516    21483365.789          48.900
        50.200
 111048449.367 7  86531306.82146  21131808.586    21131817.680          47.300
        39.900
 110619682.340 8  86197162.84846  21050213.219    21050218.328          50.500
        40.500
 118017199.789 7  91961379.92245  22457899.992    22457904.574          43.300
        32.200
 131305505.076 6 102316015.76245  24986606.797    24986613.137          40.000
        31.800
 22  1  1  0  4 30.0000000  0 10G13G30G17G21G27G08G01G07G14G10
 128014381.363 6  99751501.63242  24360330.617    24360336.547          36.900
        16.300
 111660880.567 8  87008517.21946  21248351.516    21248359.672          48.400
        41.600
 125957892.396 6  98149127.69943  23969011.805    23969018.789          39.000
        22.500
 109337217.169 8  85197880.10547  20806169.031    20806173.789          48.400
        43.100
 126330166.415 6  98439128.83446  24039811.055    24039819.328          41.000
        36.600
 112965919.214 8  88025484.93248  21496691.906    21496700.180          49.000
        50.000
 110964248.056 8  86465695.42646  21115785.688    21115794.254          48.600
        39.800
 110670868.345 8  86237048.03346  21059953.883    21059958.699          50.600
        40.700
 117933472.878 7  91896138.18345  22441966.703    22441972.164          44.400
        32.400
 131305203.428 6 102315780.72245  24986548.180    24986556.395          36.300
        32.100
 22  1  1  0  5  0.0000000  0 10G13G30G17G21G27G08G01G07G14G10
 128020917.347 5  99756594.60742  24361573.109    24361580.211          35.300
        15.600
 111658963.520 8  87007023.41346  21247986.859    21247994.605          50.700
        41.500
 125871603.018 6  98081889.24643  23952591.586    23952598.570          39.900
        23.000
 109338754.112 8  85199077.73347  20806461.523    20806466.164          50.700
        42.800
 126431318.455 6  98517948.59446  24059060.406    24059067.742          41.600
        36.400
 113036221.425 8  88080265.86948  21510070.305    21510077.816          49.200
        50.100
 110880530.297 8  86400460.83046  21099853.789    21099863.000          48.400
        40.100
 110722586.541 8  86277347.91446  21069795.094    21069801.023          50.100
        40.600
 117849907.691 7  91831022.44545  22426065.508    22426070.324          44.100
        33.600
 131305429.917 6 102315957.24345  24986591.984    24986599.496          38.100
        33.400
 22  1  1  0  5 30.0000000  0 10G13G30G17G21G27G08G01G07G14G10
 128028017.953 6  99762127.53242  24362926.383    24362931.375          36.500
        16.300
 111657650.122 8  87005999.98347  21247736.656    21247744.285          50.200
        42.100
 125785472.441 6  98014774.54244  23936202.516    23936208.094          39.000
        25.800
 109340856.237 8  85200715.75747  20806861.859    20806866.324          50.800
        42.500
 126532498.831 6  98596790.43846  24078313.438    24078321.652          40.100
        36.600
 113106749.740 7  88135222.99548  21523490.977    21523499.250          47.900
        50.000
 110797299.000 7  86335605.29846  21084015.688    21084025.426          47.600
        39.500
 110774835.138 8  86318061.09046  21079737.883    21079743.168          50.200
        40.600
 117766506.026 7  91766034.15845  22410194.070    22410199.238          44.400
        32.300
 131306185.394 6 102316545.93045  24986736.297    24986744.043          38.000
        33.000
 22  1  1  0  6  0.0000000  0 10G13G30G17G21G27G08G01G07G14G10
 128035682.049 6  99768099.55942  24364383.828    24364389.992          36.900
        14.800
 111656940.308 8  87005446.88046  21247601.633    21247609.555          51.300
        41.400
 125699500.878 6  97947783.76943  23919840.938    23919847.453          38.400
        23.600
 109343522.591 8  85202793.44447  20807368.875    20807373.750          49.800
        42.800
 126633706.090 6  98675653.22746  24097573.250    24097581.055          40.600
        36.500
 113177502.175 8  88190354.75948  21536955.117    21536962.805          48.300
        49.900
 110714556.517 8  86271130.66246  21068270.227    21068279.438          48.000
        40.100
 110827612.417 8  86359186.22346  21089780.977    21089786.906          50.300
        40.600
 117683269.110 7  91701174.23445  22394354.414    22394359.758          43.600
        32.200
 131307469.843 6 102317546.79245  24986980.617    24986987.895          37.700
        33.700
 22  1  1  0  6 30.0000000  0 10G13G30G17G21G27G08G01G07G14G10
 128043909.167 5  99774510.30842  24365949.031    24365955.664          35.000
        14.800
 111656834.382 8  87005364.33947  21247581.430    21247589.762          48.300
        42.000
 125613689.267 6  97880917.64244  23903512.500    23903518.371          39.200
        25.400
 109346752.519 8  85205310.28647  20807983.523    20807988.457          48.200
        42.300
 126734939.131 6  98754536.10346  24116837.086    24116844.363          40.000
        36.500
 113248476.939 8  88245659.76248  21550460.984    21550468.789          48.200
        49.900
 110632305.571 8  86207039.04746  21052618.906    21052627.883          48.100
        40.000
 110880916.749 8  86400722.04146  21099923.977    21099930.727          50.200
        40.900
 117600198.575 7  91636443.94645  22378546.617    22378552.547          43.500
        33.100
 131309283.764 6 102318960.23545  24987325.906    24987332.773          37.900
        33.600
 22  1  1  0  7  0.0000000  0 10G13G30G17G21G27G08G01G07G14G10
 128052698.604 5  99781359.22542  24367622.758    24367628.512          35.700
        17.400
 111657332.521 8  87005752.49846  21247676.438    21247684.301          48.400
        41.800
 125528038.199 6  97814176.57144  23887213.508    23887219.848          39.200
        24.000
 109350545.788 8  85208266.08847  20808705.555    20808710.254          48.300
        43.400
 126836196.729 6  98833438.09345  24136105.375    24136113.355          38.900
        35.900
 113319673.481 8  88301137.58548  21564009.227    21564017.207          48.300
        49.900
 110550548.817 8  86143332.51646  21037061.375    21037070.000          49.600
        40.600
 110934746.690 8  86442667.43246  21110167.797    21110173.375          49.700
        40.000
 117517296.079 7  91571844.60745  22362770.695    22362776.332          44.200
        32.600
 131311627.450 6 102320786.49145  24987771.875    24987779.445          38.700
        33.100
 22  1  1  0  7 30.0000000  0 10G13G30G17G21G27G08G01G07G14G10
 128062049.504 6  99788645.59242  24369400.641    24369408.211          36.200
        15.600
 111658434.842 8  87006611.45046  21247885.891    21247893.637          51.000
        41.700
 125442548.084 6  97747560.95544  23870946.109    23870951.277          40.900
        24.300
 109354901.612 8  85211660.24447  20809533.914    20809538.906          51.000
        42.500
 126937477.623 6  98912358.25045  24155378.063    24155386.277          39.000
        35.700
 113391089.078 8  88356786.10748  21577599.680    21577607.367          48.400
        49.900
 110469288.794 8  86080013.04546  21021597.641    21021605.973          48.500
        39.600
 110989100.451 8  86485021.00346  21120510.922    21120516.969          50.400
        40.700
 117434563.094 7  91507377.35845  22347027.508    22347033.086          44.600
        32.900
 131314501.202 6 102323025.78145  24988318.789    24988326.418          39.200
        32.900
 22  1  1  0  8  0.0000000  0 10G13G30G17G21G27G08G01G07G14G10
 128071960.516 6  99796368.50942  24371287.547    24371294.121          36.600
        16.300
 111660141.190 8  87007941.06646  21248210.539    21248218.461          51.000
        41.700
 125357219.545 6  97681071.23044  23854707.938    23854714.688          39.500
        24.700
 109359819.062 8  85215492.03347  20810469.828    20810474.762          50.000
        43.100
 127038780.461 6  98991295.50745  24174656.023    24174663.477          38.500
        35.600
 113462722.240 7  88412604.16348  21591230.063    21591238.863          47.500
        49.500
 110388527.812 8  86017082.43046  21006229.094    21006239.125          48.800
        40.700
 111043976.228 8  86527781.32546  21130953.453    21130958.973          49.800
        40.200
 117352000.926 7  91443043.21145  22331315.750    22331321.621          44.000
        32.500
 131317904.989 6 102325678.08745  24988965.797    24988973.719          38.700
        32.400
 22  1  1  0  8 30.0000000  0 10G13G30G17G21G27G08G01G07G14G10
 128082431.488 6  99804527.73542  24373279.781    24373285.887          36.300
        16.300
 111662452.177 8  87009741.83646  21248651.008    21248658.695          48.500
        41.500
 125272053.215 6  97614707.87744  23838501.531    23838507.227          40.400
        24.300
 109365297.453 8  85219760.92147  20811512.820    20811517.051          48.400
        42.500
 127140104.453 6  99070249.25345  24193937.289    24193944.977          39.000
        35.500
 113534572.203 7  88468591.14248  21604902.938    21604911.797          47.800
        49.400
 110308268.964 8  85954543.09846  20990956.758    20990965.734          49.300
        39.900
 111099372.626 8  86570947.32646  21141495.156    21141500.559          50.300
        39.900
 117269611.599 7  91378843.74545  22315638.313    22315643.480          44.200
        33.400
 131321839.629 6 102328744.05745  24989714.977    24989722.254          39.700
        32.800
 22  1  1  0  9  0.0000000  0 10G13G30G17G21G27G08G01G07G14G10
 128093460.987 6  99813122.14842  24375379.602    24375384.770          37.900
        14.800
 111665367.221 8  87012013.29246  21249205.242    21249213.633          50.600
        41.400
 125187049.497 6  97548471.22544  23822326.344    23822331.570          40.400
        26.600
 109371335.726 8  85224466.08047  20812661.398    20812666.039          50.700
        42.900
 127241447.745 6  99149218.02045  24213221.969    24213229.773          39.000
        34.800
 113606636.552 7  88524745.18048  21618616.563    21618624.484          47.600
        49.500
 110228514.085 8  85892396.47746  20975779.711    20975788.688          49.000
        40.500
 111155287.495 8  86614517.33746  21152135.563    21152141.199          50.400
        40.700
 117187396.078 7  91314779.71945  22299992.477    22299998.113          45.300
        33.600
 131326304.594 6 102332223.26545  24990563.781    24990571.879          37.100
        31.800
 22  1  1  0  9 30.0000000  0 10G13G30G17G21G27G08G01G07G14G10
 128105048.680 6  99822151.48042  24377583.188    24377589.762          36.500
        16.900
 111668887.053 8  87014756.01847  21249875.438    21249883.242          51.400
        42.300
 125102209.065 6  97482361.84644  23806180.570    23806187.145          40.100
        24.100
 109377934.041 8  85229607.63547  20813917.070    20813921.418          49.700
        42.700
 127342809.979 6  99228201.58145  24232511.023    24232519.004          39.000
        34.300
 113678914.639 8  88581065.75748  21632370.023    21632378.180          48.300
        49.000
 110149266.481 8  85830645.11746  20960699.531    20960708.215          49.200
        40.500
 111211719.496 8  86658490.30546  21162874.070    21162879.824          50.300
        40.000
 117105356.660 7  91250852.90145  22284380.664    22284387.648          44.100
        33.200
 131331300.926 6 102336116.51545  24991515.156    24991522.668          37.700
        33.100
 22  1  1  0 10  0.0000000  0 10G13G30G17G21G27G08G01G07G14G10
 128117192.941 6  99831614.50342  24379893.828    24379901.223          36.300
        16.300
 111673011.250 8  87017969.67147  21250660.094    21250668.191          50.200
        42.300
 125017532.856 6  97416380.38744  23790069.141    23790073.430          41.100
        25.100
 109385091.048 8  85235184.53147  20815279.320    20815283.961          50.200
        42.900
 127444189.443 6  99307198.58445  24251802.750    24251810.379          38.100
        33.500
 113751404.520 8  88637551.38048  21646165.148    21646172.602          48.400
        49.000
 110070528.144 8  85769290.58546  20945715.625    20945725.012          49.100
        40.500
 111268666.605 8  86702864.64746  21173711.086    21173716.195          50.200
        40.200
 117023494.416 7  91187064.14945  22268803.367    22268809.355          45.000
        34.200
 131336828.360 6 102340423.61345  24992566.570    24992574.668          36.400
        32.000
 22  1  1  0 10 30.0000000  0 10G13G30G17G21G27G08G01G07G14G10
 128129893.603 6  99841511.16342  24382313.578    24382317.281          37.000
        15.600
 111677739.994 8  87021654.39746  21251560.164    21251567.676          51.000
        41.400
 124933021.054 6  97350527.04943  23773985.641    23773991.395          39.500
        23.900
 109392806.058 8  85241196.24647  20816746.992    20816751.984          50.200
        42.600
 127545585.259 6  99386208.27745  24271096.953    24271105.754          38.400
        34.300
 113824104.925 7  88694201.04248  21659999.359    21660007.281          47.900
        48.800
 109992301.781 8  85708335.00746  20930830.055    20930839.324          49.500
        40.100
 111326127.153 8  86747639.09546  21184645.773    21184651.527          50.300
        40.600
 116941811.180 7  91123414.88745  22253259.734    22253265.605          45.100
        33.800
 131342887.088 6 102345144.69745  24993719.570    24993727.258          37.300
        31.900
 22  1  1  0 11  0.0000000  0 10G13G30G17G21G27G08G01G07G14G10
 128143148.990 6  99851840.04142  24384834.359    24384840.523          37.000
        16.300
 111683072.995 8  87025809.98846  21252574.969    21252582.539          48.700
        41.600
 124848674.366 6  97284802.40743  23757933.992    23757940.742          39.200
        23.800
 109401078.148 8  85247642.03647  20818321.305    20818326.121          48.200
        42.400
 127646995.936 6  99465229.59345  24290395.469    24290403.508          37.400
        34.800
 113897013.903 7  88751013.23548  21673873.313    21673881.410          47.800
        48.900
 109914589.629 8  85647780.10546  20916042.172    20916051.031          49.300
        41.300
 111384099.162 8  86792812.07246  21195677.000    21195682.168          49.800
        40.700
 116860308.283 7  91059906.14345  22237749.844    22237755.539          43.600
        33.100
 131349477.105 6 102350279.79445  24994974.578    24994981.855          39.700
        32.700
 22  1  1  0 11 30.0000000  0 10G13G30G17G21G27G08G01G07G14G10
 128156958.028 6  99862600.31442  24387462.633    24387468.387          37.800
        16.900
 111689010.069 8  87030436.27047  21253704.344    21253711.973          48.300
        42.200
 124764493.605 6  97219207.03144  23741915.281    23741922.324          40.300
        25.200
 109409906.150 8  85254521.00847  20820000.938    20820005.813          48.400
        42.300
 127748420.229 6  99544261.50145  24309696.734    24309703.660          38.200
        35.800
 113970129.861 7  88807986.70248  21687786.883    21687794.922          47.200
        48.600
 109837394.052 8  85587627.74246  20901351.938    20901361.090          49.400
        41.400
 111442580.486 8  86838381.91746  21206805.297    21206811.109          49.900
        40.500
 116778987.150 7  90996539.04445  22222274.914    22222280.551          43.800
        34.200
 131356598.460 6 102355828.88745  24996327.688    24996336.605          38.200
        31.900
 22  1  1  0 12  0.0000000  0 10G13G30G17G21G27G08G01G07G14G10
 128171320.742 6  99873792.06342  24390195.563    24390200.965          37.000
        16.300
 111695551.911 8  87035533.80147  21254949.398    21254957.555          48.400
        42.000
 124680478.721 6  97153740.88644  23725928.656    23725934.703          40.700
        26.800
 109419289.889 8  85261833.02047  20821786.555    20821791.371          48.400
        42.600
 127849857.777 6  99623303.72245  24328998.695    24329007.086          38.300
        35.400
 114043452.091 7  88865120.90248  21701739.313    21701748.055          47.700
        48.600
 109760718.225 8  85527880.36646  20886761.086    20886769.594          49.700
        41.100
 111501570.153 8  86884347.87346  21218031.203    21218036.605          49.600
        39.800
 116697850.216 7  90933315.46945  22206835.102    22206840.914          45.500
        33.800
 131364251.953 5 102361792.65945  24997784.375    24997793.527          35.900
        31.500
 22  1  1  0 12 30.0000000  0 10G13G30G17G21G27G08G01G07G14G10
 128186235.231 6  99885413.69742  24393035.383    24393039.555          37.300
        16.900
 111702697.690 8  87041101.94346  21256309.047    21256316.559          50.600
        41.300
 124596630.349 6  97088404.54244  23709972.828    23709978.230          40.200
        24.300
 109429228.027 8  85269577.04047  20823678.148    20823682.672          50.400
        42.900
 127951306.747 6  99702354.86145  24348303.555    24348310.949          37.900
        34.700
 114116978.249 7  88922414.00648  21715730.820    21715739.328          47.000
        48.400
 109684563.925 8  85468539.37046  20872268.875    20872278.438          48.600
        40.800
 111561065.410 8  86930707.79146  21229352.758    21229357.691          49.900
        39.800
 116616898.313 7  90870236.07445  22191430.203    22191435.664          44.700
        33.500
 131372436.917 6 102368170.55845  24999343.320    24999350.656          37.900
        33.600
 22  1  1  0 13  0.0000000  0 10G13G30G17G21G27G08G01G07G14G10
 128201700.681 6  99897464.74742  24395977.461    24395982.219          37.500
        17.400
 111710447.662 8  87047140.87846  21257783.430    21257791.938          48.400
        40.900
 124512949.460 6  97023198.72144  23694047.836    23694054.176          40.500
        25.300
 109439720.266 8  85277752.81947  20825674.578    20825679.629          48.300
        42.800
 128052766.335 6  99781414.31245  24367609.898    24367618.641          37.200
        33.800
 114190707.587 7  88979865.43948  21729761.273    21729769.430          46.400
        48.600
 109608933.875 8  85409606.88746  20857877.430    20857886.230          49.600
        41.400
 111621064.984 8  86977460.69946  21240770.141    21240775.777          50.000
        39.900
 116536133.519 7  90807302.48545  22176061.813    22176067.508          44.300
        34.400
 131381153.782 6 102374962.91845  25001002.008    25001009.637          37.500
        32.800
 22  1  1  0 13 30.0000000  0 10G13G30G17G21G27G08G01G07G14G10
 128217715.788 6  99909944.00242  24399024.180    24399029.699          37.400
        16.900
 111718801.545 8  87053650.39046  21259373.758    21259381.797          50.500
        41.900
 124429436.510 6  96958123.69244  23678157.016    23678162.418          41.100
        25.800
 109450765.148 8  85286359.23147  20827776.305    20827781.355          49.300
        43.300
 128154235.486 5  99860481.16445  24386918.906    24386927.824          35.900
        32.300
 114264638.812 7  89037474.18448  21743829.961    21743837.824          46.600
        48.500
 109533830.437 8  85351084.75146  20843585.945    20843594.688          49.600
        41.300
 111681566.732 8  87024604.90446  21252283.586    21252288.461          49.700
        39.900
 116455557.297 7  90744515.82645  22160727.789    22160733.367          44.700
        33.700
 131390402.601 6 102382169.81545  25002761.414    25002769.395          36.400
        32.800
 22  1  1  0 14  0.0000000  0 10G13G30G17G21G27G08G01G07G14G10
 128234279.507 6  99922850.81242  24402176.016    24402181.301          37.300
        16.900
 111727758.855 8  87060630.09946  21261078.070    21261085.758          50.500
        41.300
 124346092.115 6  96893180.03144  23662297.586    23662302.871          41.100
        27.700
 109462361.544 8  85295395.38547  20829982.945    20829987.879          49.600
        42.600
 128255712.693 6  99939554.26445  24406230.547    24406238.352          36.600
        33.800
 114338769.717 7  89095238.53248  21757936.859    21757944.723          46.100
        48.500
 109459255.593 8  85292974.51346  20829394.625    20829403.953          49.500
        40.900
 111742568.565 8  87072138.77846  21263891.305    21263896.824          49.600
        39.900
 116375170.926 7  90681877.09945  22145431.164    22145437.328          44.700
        33.800
 131400182.902 6 102389790.84345  25004623.008    25004630.930          39.600
        32.600
 22  1  1  0 14 30.0000000  0 10G13G30G17G21G27G08G01G07G14G10
 128251390.830 6  99936184.28442  24405432.852    24405437.199          37.700
        16.300
 111737319.741 8  87068080.13846  21262897.211    21262905.309          48.900
        41.700
 124262916.586 6  96828367.95844  23646469.859    23646475.145          41.400
        27.400
 109474508.997 8  85304860.94347  20832294.531    20832299.523          48.500
        43.200
 128357197.170 6 100018633.05445  24425542.219    24425549.906          38.000
        35.100
 114413098.657 7  89153157.18148  21772080.359    21772089.277          45.700
        48.300
 109385212.109 8  85235278.30946  20815304.047    20815313.434          49.400
        41.100
 111804068.834 8  87120061.05046  21275594.688    21275600.617          49.200
        39.900
 116294976.539 7  90619387.98045  22130171.164    22130176.684          45.400
        34.700
 131410495.091 6 102397826.30645  25006585.133    25006592.352          38.900
        31.900
 22  1  1  0 15  0.0000000  0 10G13G30G17G21G27G08G01G07G14G10
 128269048.463 6  99949943.48642  24408793.742    24408797.328          37.800
        16.300
 111747483.876 8  87076000.24146  21264832.117    21264839.863          51.100
        41.400
 124179910.279 6  96763687.77744  23630673.406    23630678.984          40.800
        26.500
 109487206.449 8  85314755.07347  20834710.789    20834715.488          49.500
        42.800
 128458687.776 6 100097716.64545  24444854.906    24444862.535          37.400
        32.800
 114487624.559 7  89211229.31248  21786262.656    21786270.578          45.700
        48.100
 109311702.271 8  85177997.93146  20801316.258    20801325.176          49.600
        41.400
 111866065.473 8  87168370.10446  21287392.758    21287398.043          49.600
        40.200
 116214975.527 7  90557049.54045  22114947.445    22114953.668          45.700
        34.000
 131421339.010 6 102406276.10845  25008648.891    25008655.641          39.000
        33.000
 22  1  1  0 15 30.0000000  0 10G13G30G17G21G27G08G01G07G14G10
 128287251.188 6  99964127.42542  24412256.805    24412261.563          36.900
        16.900
 111758250.837 8  87084390.07346  21266880.828    21266888.750          50.500
        41.100
 124097073.821 7  96699139.90544  23614910.727    23614916.012          42.600
        27.600
 109500452.598 8  85325076.75347  20837231.773    20837236.297          49.900
        42.600
 128560183.237 6 100176804.03245  24464169.234    24464177.273          36.700
        33.400
 114562345.604 7  89269453.50348  21800481.727    21800489.766          45.900
        48.000
 109238728.175 8  85121135.02946  20787429.320    20787438.297          48.900
        41.500
 111928556.331 8  87217064.25446  21299283.609    21299289.070          49.000
        39.900
 116135169.468 7  90494863.00945  22099760.258    22099766.539          44.500
        34.200
 131432714.446 6 102415140.08845  25010812.875    25010820.680          38.100
        32.800
 22  1  1  0 16  0.0000000  0 10G13G30G17G21G27G08G01G07G14G10
 128305998.057 6  99978735.36542  24415824.117    24415829.520          37.000
        17.800
 111769620.628 8  87093249.65147  21269044.438    21269051.598          50.000
        42.200
 124014407.988 7  96634725.01344  23599179.906    23599185.191          42.100
        27.800
 109514246.928 8  85335825.59447  20839856.469    20839861.402          49.100
        43.000
 128661682.896 6 100255894.67245  24483483.609    24483491.473          37.100
        32.400
 114637261.057 7  89327829.17647  21814737.664    21814745.293          45.800
        47.900
 109166292.463 8  85064691.64546  20773645.344    20773654.086          49.500
        41.900
 111991539.742 8  87266142.21746  21311268.922    21311274.852          48.800
        39.600
 116055560.241 7  90432829.85145  22084611.797    22084617.316          45.100
        34.700
 131444621.686 6 102424418.44545  25013078.289    25013087.500          37.600
        33.000
 22  1  1  0 16 30.0000000  0 10G13G30G17G21G27G08G01G07G14G10
 128325287.190 6  99993765.85342  24419495.234    24419500.402          38.100
        17.400
 111781592.452 8  87102578.33146  21271322.023    21271330.297          48.300
        41.200
 123931912.971 6  96570443.18144  23583481.047    23583486.508          41.700
        27.000
 109528587.522 8  85347000.09047  20842585.430    20842590.480          48.100
        42.300
 128763185.076 6 100334987.25445  24502799.664    24502807.117          36.600
        33.200
 114712368.553 7  89386354.49647  21829029.977    21829038.719          46.300
        47.700
 109094396.967 8  85008669.20847  20759964.344    20759972.969          50.300
        42.200
 112055013.263 8  87315602.08546  21323348.078    21323353.773          49.100
        39.600
 115976149.078 7  90370951.03145  22069500.203    22069506.016          45.700
        34.700
 131457060.039 6 102434110.69145  25015446.039    25015453.668          37.100
        32.300
 22  1  1  0 17  0.0000000  0 10G13G30G17G21G27G08G01G07G14G10
 128345117.828 6 100009218.30142  24423268.008    24423273.527          37.800
        17.800
 111794166.272 8  87112376.10447  21273715.313    21273722.707          49.800
        42.300
 123849589.641 6  96506295.15944  23567814.516    23567821.324          41.700
        28.500
 109543473.765 8  85358599.76647  20845418.250    20845422.715          50.200
        42.800
 128864689.019 6 100414081.22945  24522114.500    24522122.305          37.100
        33.200
 114787667.283 7  89445028.82947  21843358.992    21843366.973          45.800
        47.800
 109023044.162 8  84953069.63646  20746386.172    20746395.441          49.900
        41.400
 112118975.010 8  87365442.39346  21335519.227    21335524.980          49.200
        39.700
 115896937.882 7  90309228.02645  22054427.039    22054432.910          45.100
        34.800
 131470029.706 6 102444216.93845  25017913.930    25017921.559          37.300
        32.800
 22  1  1  0 17 30.0000000  0 10G13G30G17G21G27G08G01G07G14G10
 128365489.158 6 100025092.05042  24427144.250    24427149.652          37.500
        17.400
 111807342.099 8  87122642.97747  21276222.750    21276230.379          50.000
        42.100
 123767438.200 6  96442281.10344  23552182.992    23552188.453          41.600
        28.900
 109558904.949 8  85370624.07047  20848354.555    20848359.547          50.000
        42.700
 128966194.145 6 100493176.11745  24541430.055    24541438.680          37.100
        33.000
 114863156.429 7  89503851.53748  21857724.313    21857732.762          46.600
        48.000
 108952236.769 8  84897895.07046  20732911.617    20732920.711          50.100
        41.700
 112183423.240 8  87415661.76646  21347783.531    21347789.344          49.500
        39.200
 115817928.730 7  90247662.45545  22039391.547    22039397.594          45.400
        34.900
 131483530.923 6 102454737.36845  25020482.125    25020490.867          36.700
        33.300
 22  1  1  0 18  0.0000000  0 10G13G30G17G21G27G08G01G07G14G10
 128386399.034 6 100041385.48143  24431124.227    24431128.809          37.500
        18.300
 111821118.974 8  87133378.19647  21278844.406    21278852.035          49.800
        42.000
 123685459.272 7  96378401.45744  23536581.836    23536588.059          42.300
        26.900
 109574879.443 8  85383071.73647  20851394.156    20851399.090          49.800
        42.500
 129067698.753 6 100572270.60345  24560747.195    24560754.063          37.500
        33.600
 114938833.360 7  89562820.56247  21872125.195    21872133.176          46.400
        47.800
 108881976.381 8  84843146.74447  20719541.930    20719550.438          50.100
        42.100
 112248355.466 8  87466258.29346  21360139.516    21360145.094          49.600
        39.800
 115739122.721 7  90186255.18845  22024395.438    22024400.840          44.800
        35.100
 131497562.916 6 102465671.38845  25023154.344    25023160.742          37.100
        33.000
 22  1  1  0 18 30.0000000  0 10G13G30G17G21G27G08G01G07G14G10
 128407846.332 6 100058097.64242  24435205.789    24435211.016          38.600
        17.800
 111835496.534 8  87144581.47846  21281580.289    21281588.152          50.700
        41.700
 123603653.164 6  96314656.46944  23521014.977    23521020.496          40.600
        25.700
 109591396.431 8  85395942.12447  20854537.727    20854542.074          50.200
        43.000
 129169201.955 6 100651363.99345  24580061.227    24580069.090          37.300
        33.100
 115014697.070 7  89621935.14448  21886561.727    21886569.297          46.400
        48.000
 108812265.305 8  84788826.45447  20706276.086    20706285.238          50.200
        42.200
 112313769.710 8  87517230.41946  21372587.859    21372593.496          48.900
        38.700
 115660521.575 7  90125007.54845  22009438.195    22009444.359          46.600
        34.800
 131512125.527 6 102477018.87645  25025925.289    25025932.918          39.700
        33.300
 22  1  1  0 19  0.0000000  0 10G13G30G17G21G27G08G01G07G14G10
 128429829.919 6 100075227.71742  24439388.508    24439393.559          37.400
        16.900
 111850474.567 8  87156252.67347  21284430.500    21284438.305          50.600
        42.400
 123522020.684 6  96251046.76344  23505480.406    23505487.098          41.100
        26.700
 109608454.622 8  85409234.22747  20857783.484    20857788.770          50.000
        43.200
 129270702.800 6 100730455.51845  24599376.031    24599384.773          37.200
        32.300
 115090746.020 7  89681194.05347  21901032.813    21901041.203          46.000
        47.300
 108743105.911 8  84734936.03747  20693115.133    20693123.582          50.300
        42.300
 112379663.862 8  87568576.48746  21385127.289    21385132.691          49.100
        39.000
 115582127.168 7  90063921.00345  21994520.258    21994526.012          46.600
        35.400
 131527218.806 6 102488779.87245  25028796.578    25028804.910          38.600
        33.000
 22  1  1  0 19 30.0000000  0 10G13G30G17G21G27G08G01G07G14G10
 128452348.007 6 100092774.27242  24443672.719    24443678.414          37.300
        17.400
 111866052.296 8  87168391.15247  21287394.758    21287402.328          49.600
        42.000
 123440562.386 7  96187572.78844  23489980.609    23489984.957          42.400
        27.000
 109626052.749 8  85422947.06947  20861132.227    20861136.984          48.900
        42.600
 129372200.094 6 100809544.33145  24618691.703    24618698.688          38.600
        32.600
 115166978.821 7  89740596.21747  21915539.313    21915548.113          46.500
        47.000
 108674500.140 8  84681477.01447  20680060.055    20680068.797          50.800
        42.400
 112446035.618 8  87620294.72946  21397757.016    21397763.180          49.100
        39.400
 115503940.907 7  90002996.65145  21979641.703    21979647.809          46.300
        35.400
 131542842.152 6 102500953.89545  25031769.938    25031777.977          38.700
        32.700
 22  1  1  0 20  0.0000000  0 10G13G30G17G21G27G08G01G07G14G10
 128475399.538 6 100110736.48742  24448060.109    24448065.512          38.100
        17.400
 111882229.455 8  87180996.72746  21290473.258    21290480.887          48.100
        41.600
 123359278.427 7  96124234.67644  23474512.375    23474517.953          42.000
        27.400
 109644189.605 8  85437079.68847  20864583.672    20864588.195          48.200
        43.000
 129473693.025 6 100888629.71045  24638005.648    24638012.984          39.200
        33.300
 115243394.286 7  89800140.74247  21930081.484    21930089.582          46.700
        47.200
 108606450.323 8  84628451.21147  20667110.617    20667119.770          50.700
        42.100
 112512883.070 8  87672383.62846  21410477.383    21410483.430          48.500
        38.900
 115425964.704 7  89942235.98245  21964803.602    21964809.355          46.900
        35.800
 131558995.511 6 102513540.94745  25034845.047    25034851.152          37.700
        33.600
 22  1  1  0 20 30.0000000  0 10G13G30G17G21G27G08G01G07G14G10
 128498983.265 6 100129113.42742  24452548.297    24452553.230          38.400
        17.400
 111899005.606 8  87194069.04146  21293665.242    21293672.754          50.800
        40.300
 123278169.491 6  96061032.95844  23459078.492    23459083.543          41.600
        28.200
 109662864.554 8  85451631.60347  20868137.469    20868142.227          50.200
        42.900
 129575180.596 6 100967710.93645  24657316.789    24657325.004          37.800
        32.800
 115319990.851 7  89859826.36747  21944657.695    21944665.500          46.900
        47.100
 108538958.615 8  84575860.29147  20654267.375    20654276.176          50.000
        42.300
 112580204.035 8  87724841.50846  21423288.383    21423293.785          49.600
        38.500
 115348200.302 7  89881640.35545  21950005.289    21950011.395          47.000
        35.300
 131575678.702 6 102526540.83645  25038017.563    25038026.305          39.300
        32.700
 22  1  1  0 21  0.0000000  0 10G13G30G17G21G27G08G01G07G14G10
 128523097.404 6 100147903.68442  24457137.734    24457142.375          38.400
        16.900
 111916379.940 8  87207607.47946  21296971.625    21296979.254          50.600
        41.700
 123197235.811 6  95997967.80244  23443675.992    23443682.039          41.600
        27.200
 109682075.897 8  85466601.48847  20871793.297    20871798.289          50.000
        43.300
 129676661.675 6 101046787.06945  24676627.797    24676636.305          36.700
        31.600
 115396766.997 7  89919651.93947  21959267.031    21959274.953          46.100
        47.000
 108472026.962 8  84523705.78047  20641531.039    20641540.133          50.300
        42.200
 112647996.177 8  87777666.53046  21436188.695    21436194.508          49.100
        38.900
 115270649.218 7  89821210.94045  21935248.047    21935253.566          46.400
        35.400
 131592891.162 6 102539953.16445  25041294.992    25041302.094          40.300
        32.800
 22  1  1  0 21 30.0000000  0 10G13G30G17G21G27G08G01G07G14G10
 128547740.782 6 100167106.33342  24461826.641    24461830.754          37.900
        17.800
 111934352.375 8  87221611.96346  21300391.320    21300399.066          50.500
        41.400
 123116478.085 7  95935039.74244  23428308.961    23428314.070          42.900
        28.200
 109701822.862 8  85481988.73747  20875550.875    20875555.809          49.600
        42.600
 129778135.526 6 101125857.59345  24695938.078    24695946.352          37.600
        33.200
 115473721.792 7  89979616.71547  21973910.711    21973918.809          46.100
        46.700
 108405657.852 8  84471989.62347  20628901.250    20628910.109          50.000
        42.100
 112716257.907 8  87830857.45346  21449179.180    21449184.699          49.500
        38.600
 115193313.528 7  89760949.36845  21920531.156    21920537.203          46.400
        35.700
 131610633.002 6 102553777.95945  25044669.273    25044677.430          37.200
        31.900
 22  1  1  0 22  0.0000000  0 10G13G30G17G21G27G08G01G07G14G10
 128572911.927 6 100186720.17542  24466616.695    24466621.395          38.700
        17.400
 111952921.991 8  87236081.79046  21303925.203    21303933.125          49.800
        41.200
 123035896.574 7  95872248.97644  23412974.117    23412979.988          44.100
        29.500
 109722103.647 8  85497791.95347  20879410.383    20879415.141          50.000
        42.500
 129879600.990 5 101204921.54145  24715246.969    24715254.188          35.800
        31.500
 115550853.420 7  90039719.28947  21988588.367    21988596.875          46.000
        46.700
 108339853.081 8  84420713.19546  20616379.109    20616387.852          50.200
        41.900
 112784986.514 8  87884412.18446  21462257.086    21462263.016          48.100
        38.000
 115116194.656 7  89700856.74946  21905856.258    21905861.895          46.700
        36.000
 131628903.562 6 102568014.77045  25048148.289    25048154.746          39.800
        34.000
 22  1  1  0 22 30.0000000  0 10G13G30G17G21G27G08G01G07G14G10
 128598609.152 6 100206743.93942  24471506.211    24471511.145          37.100
        16.300
 111972088.181 8  87251016.47646  21307572.430    21307580.234          50.600
        41.000
 122955491.921 7  95809596.04544  23397673.945    23397679.406          43.000
        29.800
 109742917.209 8  85514010.32847  20883371.117    20883375.582          50.000
        43.100
 129981057.111 6 101283978.26645  24734552.930    24734560.852          36.000
        31.800
 115628160.736 7  90099958.74547  22003299.656    22003307.754          46.300
        46.700
 108274614.727 8  84369878.13647  20603964.656    20603972.871          50.900
        42.500
 112854180.006 8  87938329.16746  21475424.727    21475429.895          48.300
        38.300
 115039294.381 7  89640934.46045  21891222.063    21891227.816          47.000
        35.900
 131647702.482 6 102582663.29745  25051723.578    25051732.379          36.400
        32.800
 22  1  1  0 23  0.0000000  0 10G13G30G17G21G27G08G01G07G14G10
 128624830.798 6 100227176.38442  24476496.484    24476501.359          38.200
        16.300
 111991850.097 8  87266415.36746  21311333.359    21311340.637          49.600
        41.700
 122875264.446 7  95747081.15144  23382406.500    23382413.016          42.500
        29.300
 109764261.906 8  85530642.56147  20887432.906    20887437.781          50.500
        42.900
 130082502.714 6 101363026.77445  24753857.750    24753864.324          37.100
        31.200
 115705641.977 7  90160333.73947  22018044.141    22018052.063          46.300
        47.000
 108209944.567 8  84319485.82447  20591658.414    20591667.039          51.200
        42.800
 112923835.716 8  87992606.32746  21488678.875    21488685.273          48.300
        37.700
 114962614.147 7  89581183.63645  21876630.766    21876636.871          45.900
        35.900
 131667029.093 6 102597723.00345  25055402.398    25055409.910          38.300
        32.900
 22  1  1  0 23 30.0000000  0 10G13G30G17G21G27G08G01G07G14G10
 128651575.580 6 100248016.49342  24481585.586    24481590.168          38.400
        15.600
 112012207.450 8  87282278.23646  21315206.867    21315214.789          50.200
        40.900
 122795214.598 7  95684704.69744  23367174.203    23367179.781          43.700
        29.900
 109786137.057 8  85547688.14247  20891595.008    20891599.766          50.500
        42.500
 130183937.116 6 101442066.55845  24773160.063    24773166.988          37.300
        31.200
 115783295.967 7  90220843.33947  22032821.039    22032829.430          46.200
        46.800
 108145845.023 8  84269538.14947  20579460.680    20579469.246          50.700
        42.900
 112993951.824 7  88047242.23646  21502021.883    21502028.281          47.600
        37.300
 114886156.048 7  89521605.90945  21862081.227    21862086.805          46.500
        35.600
 131686883.427 6 102613193.92445  25059180.570    25059187.496          37.500
        32.600
 22  1  1  0 24  0.0000000  0 10G13G30G17G21G27G08G01G07G14G10
 128678841.926 6 100269262.99742  24486773.633    24486778.801          38.100
        15.600
 112033159.380 8  87298604.40546  21319193.828    21319202.043          49.600
        41.300
 122715342.971 7  95622467.06944  23351975.219    23351980.504          43.900
        29.300
 109808541.287 8  85565145.99247  20895858.945    20895863.820          49.200
        42.900
 130285359.331 6 101521096.84745  24792459.695    24792466.797          38.100
        30.900
 115861121.822 7  90281486.86047  22047631.117    22047638.805          46.100
        46.900
 108082317.926 8  84220036.53447  20567371.547    20567379.820          50.300
        42.900
 113064525.909 7  88102235.00346  21515451.742    21515457.086          47.900
        37.300
 114809921.724 7  89462202.54546  21847574.320    21847579.840          46.100
        36.000
 131707264.876 6 102629075.56345  25063057.602    25063066.051          36.900
        33.000
 22  1  1  0 24 30.0000000  0 10G13G30G17G21G27G08G01G07G14G10
 128706628.188 6 100290914.61442  24492062.703    24492066.172          38.900
        16.300
 112054705.136 8  87315393.29546  21323293.859    21323302.367          49.000
        41.400
 122635649.826 7  95560368.54145  23336810.734    23336815.668          42.800
        30.100
 109831472.535 8  85583014.50647  20900222.398    20900227.273          49.600
        42.200
 130386768.303 6 101600116.81745  24811756.891    24811765.223          36.900
        31.400
 115939117.579 7  90342262.77147  22062473.180    22062481.219          46.800
        46.600
 108019365.152 8  84170982.45047  20555392.109    20555401.496          51.000
        42.700
 113135555.381 8  88157582.61646  21528968.234    21528974.164          48.000
        37.600
 114733912.793 7  89402974.80746  21833110.469    21833115.813          45.900
        36.200
 131728172.870 6 102645367.51745  25067037.570    25067045.141          39.600
        33.000
 22  1  1  0 25  0.0000000  0 10G13G30G17G21G27G08G01G07G14G10
 128734932.742 6 100312970.13242  24497446.914    24497452.141          38.000
        17.800
 112076843.968 8  87332644.32346  21327506.953    21327514.523          48.300
        41.400
 122556135.743 6  95498409.56344  23321678.359    23321683.996          41.800
        29.500
 109854929.904 8  85601292.98047  20904686.219    20904690.977          48.000
        42.600
 130488163.149 6 101679125.75845  24831052.813    24831060.148          37.000
        31.100
 116017282.002 7  90403170.11147  22077346.664    22077355.172          46.600
        46.200
 107956988.687 8  84122377.43547  20543522.164    20543530.848          50.800
        42.700
 113207038.319 7  88213283.58246  21542571.609    21542577.422          47.800
        38.100
 114658131.069 7  89343924.11846  21818689.586    21818695.047          46.200
        36.500
 131749606.910 6 102662069.36745  25071115.492    25071123.238          39.400
        31.900
 22  1  1  0 25 30.0000000  0 10G13G30G17G21G27G08G01G07G14G10
 128763753.916 6 100335428.20642  24502932.320    24502937.137          38.200
        16.300
 112099575.259 8  87350357.01346  21331832.633    21331840.613          48.000
        41.300
 122476801.166 7  95436590.42844  23306582.156    23306587.676          42.500
        29.500
 109878912.451 8  85619980.68847  20909250.180    20909254.527          48.200
        42.600
 130589543.003 6 101758123.03445  24850344.578    24850352.090          37.300
        31.200
 116095613.956 7  90464207.99247  22092252.906    22092261.004          46.900
        46.400
 107895190.578 8  84074223.08747  20531762.344    20531771.613          51.200
        43.500
 113278972.478 8  88269336.13946  21556259.156    21556265.613          48.200
        37.000
 114582578.293 7  89285051.83546  21804312.445    21804318.082          46.300
        37.100
 131771566.749 6 102679180.92145  25075295.063    25075302.867          39.000
        32.200
 22  1  1  0 26  0.0000000  0 10G13G30G17G21G27G08G01G07G14G10
 128793090.184 6 100358287.60942  24508514.406    24508519.867          37.200
        16.300
 112122898.167 8  87368530.69346  21336270.750    21336278.848          48.200
        41.300
 122397646.509 6  95374911.48644  23291519.094    23291524.730          41.600
        27.500
 109903418.417 8  85639076.24947  20913913.508    20913918.148          48.100
        42.900
 130690906.949 5 101837107.93945  24869632.984    24869641.785          35.500
        30.800
 116174112.063 7  90525375.35447  22107191.047    22107198.852          46.400
        46.100
 107833972.727 8  84026520.88647  20520113.117    20520121.742          50.600
        43.100
 113351355.417 8  88325738.40146  21570033.758    21570039.395          48.500
        36.900
 114507256.302 7  89226359.38846  21789978.719    21789984.707          46.300
        36.800
 131794051.654 6 102696701.65045  25079573.813    25079580.797          38.200
        31.300
 22  1  1  0 26 30.0000000  0 10G13G30G17G21G27G08G01G07G14G10
 128822939.618 6 100381546.87742  24514193.930    24514199.684          37.800
        16.300
 112146811.718 8  87387164.62846  21340821.375    21340829.180          50.300
        41.100
 122318672.153 6  95313373.05444  23276490.625    23276496.438          41.900
        28.100
 109928446.058 8  85658578.31747  20918676.078    20918680.543          50.000
        42.800
 130792253.831 6 101916079.49945  24888919.227    24888926.680          37.000
        31.700
 116252774.777 7  90586670.96647  22122159.508    22122167.840          46.900
        46.100
 107773336.783 8  83979272.11747  20508574.500    20508583.066          51.100
        42.800
 113424184.861 8  88382488.59146  21583893.164    21583898.918          48.000
        36.900
 114432166.627 7  89167847.96246  21775690.383    21775695.609          46.200
        36.300
 131817061.045 6 102714631.03345  25083951.297    25083959.863          37.100
        30.600
 22  1  1  0 27  0.0000000  0 10G13G30G17G21G27G08G01G07G14G10
 128853300.797 6 100405204.92642  24519972.789    24519976.902          39.000
        16.900
 112171315.275 8  87406258.29546  21345484.523    21345492.094          48.200
        40.900
 122239878.588 7  95251975.47644  23261497.156    23261501.738          42.300
        28.900
 109953994.361 8  85678486.09747  20923537.414    20923542.289          48.600
        42.500
 130893582.912 6 101995037.20144  24908200.570    24908208.199          36.900
        28.500
 116331601.087 7  90648094.05947  22137160.031    22137168.012          46.100
        46.200
 107713284.839 8  83932478.41347  20497146.414    20497155.684          51.500
        43.000
 113497458.316 7  88439584.75546  21597836.156    21597842.203          47.900
        37.100
 114357311.240 7  89109519.09546  21761445.102    21761451.090          46.600
        36.500
 131840594.388 6 102732968.69445  25088429.773    25088437.988          39.000
        30.900
 22  1  1  0 27 30.0000000  0 10G13G30G17G21G27G08G01G07G14G10
 128884171.977 6 100429260.42742  24525847.461    24525852.219          38.700
        17.400
 112196407.871 8  87425810.96047  21350259.430    21350267.293          49.700
        42.000
 122161266.329 7  95190719.18444  23246537.406    23246542.574          42.100
        28.300
 109980061.832 8  85698798.42247  20928497.672    20928502.840          50.300
        42.300
 130994893.397 6 102073980.45745  24927479.727    24927487.414          37.400
        31.100
 116410589.384 7  90709643.38147  22152190.688    22152199.313          46.400
        45.800
 107653818.649 8  83886141.13947  20485830.516    20485839.434          51.100
        43.000
 113571173.425 8  88497025.07946  21611864.258    21611869.895          48.000
        37.300
 114282691.804 7  89051374.08646  21747245.625    21747251.027          46.300
        36.300
 131864651.122 6 102751714.21144  25093007.234    25093015.332          38.100
        29.500
 22  1  1  0 28  0.0000000  0 10G13G30G17G21G27G08G01G07G14G10
 128915551.417 6 100453711.90242  24531818.063    24531823.348          38.100
        17.800
 112222088.706 8  87445821.99146  21355146.297    21355154.336          49.500
        41.300
 122082835.614 7  95129604.34644  23231613.016    23231618.418          43.000
        27.800
 110006646.858 8  85719514.03147  20933557.266    20933561.848          50.000
        42.200
 131096184.290 6 102152908.42745  24946754.680    24946762.191          36.600
        30.700
 116489738.379 7  90771317.92147  22167252.422    22167261.340          46.500
        45.500
 107594940.150 8  83840261.80947  20474626.469    20474635.270          51.200
        43.000
 113645327.900 7  88554807.76246  21625974.883    21625981.047          47.500
        37.100
 114208310.184 7  88993414.39446  21733091.398    21733096.977          47.200
        36.900
 131889230.662 6 102770867.10045  25097685.461    25097692.445          37.800
        30.300
 22  1  1  0 28 30.0000000  0 10G13G30G17G21G27G08G01G07G14G10
 128947437.557 6 100478558.22742  24537886.852    24537891.668          38.400
        16.900
 112248356.883 8  87466290.68546  21360145.070    21360152.816          48.100
        41.400
 122004587.079 7  95068631.47044  23216722.805    23216727.211          42.700
        29.400
 110033748.381 8  85740632.10947  20938714.492    20938719.016          48.500
        42.400
 131197454.792 5 102231820.52245  24966025.352    24966032.980          35.800
        30.200
 116569047.418 7  90833117.16347  22182344.398    22182352.438          45.500
        45.900
 107536651.073 8  83794841.77347  20463534.297    20463543.566          51.500
        43.100
 113719919.182 7  88612930.82046  21640169.758    21640175.277          47.900
        37.100
