% program   : RTKPOST ver.2.4.3 b34
% inp file  : C:\Users\abdal\OneDrive\Documents\UA_REU\Positioning\data\Static.23O
% inp file  : C:\Users\abdal\OneDrive\Documents\UA_REU\Positioning\data\Static.23N
% obs start : 2023/06/08 15:39:12.0 GPST (week2265 401952.0s)
% obs end   : 2023/06/08 21:12:00.0 GPST (week2265 421920.0s)
% pos mode  : Single
% elev mask : 15.0 deg
% ionos opt : Broadcast
% tropo opt : Saastamoinen
% ephemeris : Broadcast
% navi sys  : GPS
%
% (lat/lon/height=WGS84/ellipsoidal,Q=1:fix,2:float,3:sbas,4:dgps,5:single,6:ppp,ns=# of satellites)
%  GPST                  latitude(deg) longitude(deg)  height(m)   Q  ns   sdn(m)   sde(m)   sdu(m)  sdne(m)  sdeu(m)  sdun(m) age(s)  ratio
2023/06/08 17:23:33.000   33.219595139  -87.535858336    33.1067   5   4  16.7994  14.3465  53.6555 -12.9864  26.9487 -25.7551   0.00    0.0
2023/06/08 17:23:34.000   33.219621478  -87.535832309    32.5259   5   4  16.7927  14.3452  53.6437 -12.9805  26.9443 -25.7433   0.00    0.0
2023/06/08 17:23:35.000   33.219630493  -87.535822613    32.3101   5   4  16.7860  14.3439  53.6318 -12.9747  26.9399 -25.7316   0.00    0.0
2023/06/08 17:23:36.000   33.219562428  -87.535894493    33.0926   5   4  16.7792  14.3428  53.6201 -12.9688  26.9357 -25.7198   0.00    0.0
2023/06/08 17:23:37.000   33.219551335  -87.535905092    33.2987   5   4  16.7725  14.3415  53.6083 -12.9630  26.9314 -25.7080   0.00    0.0
2023/06/08 17:23:38.000   33.219548882  -87.535908474    33.2457   5   4  16.7658  14.3403  53.5966 -12.9571  26.9271 -25.6963   0.00    0.0
2023/06/08 17:23:39.000   33.219523156  -87.535936226    33.4856   5   4  16.7591  14.3391  53.5848 -12.9513  26.9228 -25.6845   0.00    0.0
2023/06/08 17:23:40.000   33.219503479  -87.535956664    33.7388   5   4  16.7524  14.3379  53.5731 -12.9455  26.9185 -25.6728   0.00    0.0
2023/06/08 17:23:41.000   33.219495698  -87.535966297    33.6986   5   4  16.7457  14.3367  53.5614 -12.9396  26.9143 -25.6611   0.00    0.0
2023/06/08 17:23:42.000   33.219506681  -87.535955993    33.4072   5   4  16.7391  14.3355  53.5496 -12.9338  26.9100 -25.6494   0.00    0.0
2023/06/08 17:23:43.000   33.219530835  -87.535931096    33.0621   5   4  16.7324  14.3342  53.5379 -12.9280  26.9056 -25.6377   0.00    0.0
2023/06/08 17:23:44.000   33.219530861  -87.535930891    33.0967   5   4  16.7258  14.3330  53.5262 -12.9221  26.9013 -25.6260   0.00    0.0
2023/06/08 17:23:45.000   33.219534652  -87.535926969    33.0668   5   4  16.7191  14.3318  53.5145 -12.9163  26.8971 -25.6143   0.00    0.0
2023/06/08 17:23:53.000   33.219588017  -87.535858328    33.9399   5   4  16.6663  14.3223  53.4214 -12.8700  26.8631 -25.5213   0.00    0.0
2023/06/08 17:23:54.000   33.219583743  -87.535861514    34.1828   5   4  16.6597  14.3211  53.4098 -12.8642  26.8589 -25.5098   0.00    0.0
2023/06/08 17:23:55.000   33.219540063  -87.535907508    34.7869   5   4  16.6531  14.3200  53.3983 -12.8584  26.8548 -25.4982   0.00    0.0
2023/06/08 17:23:56.000   33.219489043  -87.535961493    35.4746   5   4  16.6465  14.3189  53.3868 -12.8527  26.8507 -25.4866   0.00    0.0
2023/06/08 17:23:58.000   33.219428506  -87.536026421    36.0309   5   4  16.6334  14.3167  53.3638 -12.8412  26.8424 -25.4634   0.00    0.0
2023/06/08 17:25:41.000   33.219684351  -87.535777664    30.3391   5   4  15.9973  14.2224  52.2416 -12.2720  26.4519 -24.3235   0.00    0.0
2023/06/08 17:25:42.000   33.219697516  -87.535762999    30.1767   5   4  15.9915  14.2217  52.2313 -12.2667  26.4484 -24.3129   0.00    0.0
2023/06/08 17:25:43.000   33.219632036  -87.535837199    30.8408   5   4  15.9857  14.2211  52.2211 -12.2614  26.4451 -24.3022   0.00    0.0
2023/06/08 17:25:44.000   33.219584698  -87.535891256    31.2842   5   4  15.9798  14.2205  52.2109 -12.2561  26.4418 -24.2916   0.00    0.0
2023/06/08 17:25:45.000   33.219578934  -87.535899112    31.2342   5   4  15.9740  14.2198  52.2007 -12.2509  26.4384 -24.2810   0.00    0.0
2023/06/08 17:25:46.000   33.219572097  -87.535901954    31.7791   5   4  15.9682  14.2191  52.1904 -12.2456  26.4350 -24.2704   0.00    0.0
2023/06/08 17:25:47.000   33.219556558  -87.535918077    32.0712   5   4  15.9624  14.2185  52.1802 -12.2403  26.4317 -24.2599   0.00    0.0
2023/06/08 17:25:48.000   33.219631330  -87.535832142    31.4194   5   4  15.9567  14.2177  52.1699 -12.2350  26.4281 -24.2494   0.00    0.0
2023/06/08 17:25:49.000   33.219695435  -87.535757753    30.9686   5   4  15.9510  14.2169  52.1596 -12.2297  26.4247 -24.2389   0.00    0.0
2023/06/08 17:25:50.000   33.219709855  -87.535740044    30.9505   5   4  15.9452  14.2163  52.1494 -12.2244  26.4213 -24.2283   0.00    0.0
2023/06/08 17:25:51.000   33.219597956  -87.535867429    31.9453   5   4  15.9394  14.2158  52.1394 -12.2191  26.4181 -24.2177   0.00    0.0
2023/06/08 17:25:52.000   33.219559200  -87.535908751    32.6518   5   4  15.9336  14.2152  52.1292 -12.2139  26.4148 -24.2071   0.00    0.0
2023/06/08 17:25:53.000   33.219547525  -87.535921784    32.8646   5   4  15.9278  14.2146  52.1191 -12.2086  26.4115 -24.1966   0.00    0.0
2023/06/08 17:25:54.000   33.219531216  -87.535940633    33.0148   5   4  15.9221  14.2139  52.1089 -12.2034  26.4082 -24.1861   0.00    0.0
2023/06/08 17:25:55.000   33.219531797  -87.535940068    32.9938   5   4  15.9163  14.2133  52.0988 -12.1981  26.4048 -24.1756   0.00    0.0
2023/06/08 17:25:56.000   33.219534548  -87.535936945    32.9019   5   4  15.9106  14.2127  52.0887 -12.1928  26.4015 -24.1651   0.00    0.0
2023/06/08 17:25:57.000   33.219534117  -87.535938341    32.7560   5   4  15.9049  14.2120  52.0785 -12.1876  26.3982 -24.1546   0.00    0.0
2023/06/08 17:25:58.000   33.219526955  -87.535946993    32.8385   5   4  15.8992  14.2114  52.0684 -12.1823  26.3949 -24.1441   0.00    0.0
2023/06/08 17:25:59.000   33.219545743  -87.535923709    32.8004   5   4  15.8935  14.2108  52.0583 -12.1771  26.3915 -24.1337   0.00    0.0
2023/06/08 17:27:13.000   33.219491942  -87.535917630    38.3629   5   4  15.4879  14.1758  51.3401 -11.7994  26.1645 -23.3812   0.00    0.0
2023/06/08 17:27:14.000   33.219569186  -87.535880630    33.8760   5   4  15.4827  14.1754  51.3307 -11.7945  26.1616 -23.3714   0.00    0.0
2023/06/08 17:27:15.000   33.219553110  -87.535887036    34.9725   5   4  15.4774  14.1751  51.3214 -11.7895  26.1588 -23.3615   0.00    0.0
2023/06/08 17:27:16.000   33.219499678  -87.535920331    37.5779   5   4  15.4722  14.1748  51.3122 -11.7845  26.1560 -23.3516   0.00    0.0
2023/06/08 17:27:17.000   33.219451015  -87.535979830    37.8381   5   4  15.4669  14.1746  51.3030 -11.7796  26.1533 -23.3417   0.00    0.0
2023/06/08 17:27:18.000   33.219451915  -87.535992570    36.7709   5   4  15.4617  14.1743  51.2937 -11.7746  26.1505 -23.3319   0.00    0.0
2023/06/08 17:27:53.000   33.219621751  -87.535801972    34.1695   5   4  15.2822  14.1654  50.9748 -11.6033  26.0556 -22.9921   0.00    0.0
2023/06/08 17:29:09.000   33.219401441  -87.536029130    40.0084   5   4  14.9153  14.1620  50.3224 -11.2449  25.8746 -22.2841   0.00    0.0
2023/06/08 17:29:10.000   33.219434824  -87.535987928    39.7345   5   4  14.9107  14.1621  50.3142 -11.2403  25.8723 -22.2751   0.00    0.0
2023/06/08 17:29:11.000   33.219471962  -87.535942106    39.3926   5   4  14.9061  14.1621  50.3059 -11.2357  25.8701 -22.2661   0.00    0.0
2023/06/08 17:29:12.000   33.219448978  -87.535971528    39.3982   5   4  14.9015  14.1622  50.2977 -11.2311  25.8680 -22.2570   0.00    0.0
2023/06/08 17:29:13.000   33.219468304  -87.535946973    39.3358   5   4  14.8969  14.1623  50.2894 -11.2265  25.8658 -22.2480   0.00    0.0
2023/06/08 17:29:14.000   33.219474411  -87.535939927    39.2800   5   4  14.8923  14.1624  50.2812 -11.2219  25.8636 -22.2390   0.00    0.0
2023/06/08 17:29:15.000   33.219463069  -87.535956130    39.2198   5   4  14.8877  14.1625  50.2730 -11.2174  25.8615 -22.2300   0.00    0.0
2023/06/08 17:29:16.000   33.219473287  -87.535944126    39.0428   5   4  14.8831  14.1626  50.2648 -11.2128  25.8593 -22.2210   0.00    0.0
2023/06/08 17:29:17.000   33.219487796  -87.535925665    38.9784   5   4  14.8785  14.1627  50.2566 -11.2082  25.8572 -22.2120   0.00    0.0
2023/06/08 17:29:18.000   33.219484617  -87.535928872    39.0642   5   4  14.8739  14.1628  50.2485 -11.2036  25.8550 -22.2030   0.00    0.0
2023/06/08 17:29:19.000   33.219504515  -87.535904437    38.9099   5   4  14.8694  14.1629  50.2403 -11.1990  25.8529 -22.1940   0.00    0.0
2023/06/08 17:29:20.000   33.219502106  -87.535909449    38.7228   5   4  14.8648  14.1630  50.2321 -11.1945  25.8507 -22.1850   0.00    0.0
2023/06/08 17:29:21.000   33.219491469  -87.535923005    38.7778   5   4  14.8602  14.1631  50.2240 -11.1899  25.8486 -22.1760   0.00    0.0
2023/06/08 17:29:22.000   33.219485965  -87.535930597    38.6507   5   4  14.8556  14.1633  50.2159 -11.1854  25.8465 -22.1671   0.00    0.0
2023/06/08 17:29:23.000   33.219489887  -87.535924548    38.6523   5   4  14.8511  14.1634  50.2077 -11.1808  25.8444 -22.1581   0.00    0.0
2023/06/08 17:29:24.000   33.219507551  -87.535901454    38.5927   5   4  14.8465  14.1635  50.1996 -11.1762  25.8423 -22.1492   0.00    0.0
2023/06/08 17:29:25.000   33.219500854  -87.535911466    38.5108   5   4  14.8420  14.1636  50.1915 -11.1717  25.8402 -22.1402   0.00    0.0
2023/06/08 17:29:26.000   33.219508884  -87.535904748    38.1284   5   4  14.8374  14.1638  50.1834 -11.1671  25.8381 -22.1313   0.00    0.0
2023/06/08 17:29:27.000   33.219511589  -87.535900815    38.1493   5   4  14.8329  14.1639  50.1753 -11.1626  25.8360 -22.1223   0.00    0.0
2023/06/08 17:29:28.000   33.219503691  -87.535911598    38.1212   5   4  14.8284  14.1641  50.1672 -11.1580  25.8339 -22.1134   0.00    0.0
2023/06/08 17:29:29.000   33.219493906  -87.535924845    38.1130   5   4  14.8238  14.1642  50.1591 -11.1535  25.8319 -22.1045   0.00    0.0
2023/06/08 17:29:30.000   33.219502562  -87.535914657    38.0307   5   4  14.8193  14.1644  50.1510 -11.1489  25.8298 -22.0956   0.00    0.0
2023/06/08 17:29:31.000   33.219513036  -87.535901729    37.9614   5   4  14.8148  14.1645  50.1430 -11.1444  25.8277 -22.0867   0.00    0.0
2023/06/08 17:29:32.000   33.219504806  -87.535914239    37.7983   5   4  14.8103  14.1647  50.1349 -11.1399  25.8257 -22.0778   0.00    0.0
2023/06/08 17:29:33.000   33.219494736  -87.535928608    37.6973   5   4  14.8058  14.1649  50.1269 -11.1353  25.8236 -22.0689   0.00    0.0
2023/06/08 17:29:34.000   33.219488728  -87.535937912    37.5469   5   4  14.8013  14.1650  50.1189 -11.1308  25.8216 -22.0600   0.00    0.0
2023/06/08 17:29:35.000   33.219486184  -87.535941821    37.4422   5   4  14.7968  14.1652  50.1109 -11.1263  25.8196 -22.0511   0.00    0.0
2023/06/08 17:29:36.000   33.219480793  -87.535950012    37.3360   5   4  14.7923  14.1654  50.1028 -11.1218  25.8175 -22.0422   0.00    0.0
2023/06/08 17:29:37.000   33.219480660  -87.535952447    37.0882   5   4  14.7878  14.1656  50.0948 -11.1173  25.8155 -22.0333   0.00    0.0
2023/06/08 17:29:38.000   33.219496533  -87.535934967    36.7763   5   4  14.7833  14.1657  50.0868 -11.1127  25.8135 -22.0245   0.00    0.0
2023/06/08 17:30:24.000   33.219479717  -87.535973546    32.2051   5   4  14.5822  14.1775  49.7277 -10.9079  25.7256 -21.6236   0.00    0.0
2023/06/08 17:30:25.000   33.219560506  -87.535866992    31.9662   5   4  14.5780  14.1777  49.7200 -10.9035  25.7237 -21.6151   0.00    0.0
2023/06/08 17:30:26.000   33.219567974  -87.535855879    32.0394   5   4  14.5737  14.1780  49.7124 -10.8991  25.7219 -21.6065   0.00    0.0
2023/06/08 17:30:27.000   33.219536283  -87.535896120    32.1672   5   4  14.5694  14.1784  49.7048 -10.8947  25.7202 -21.5980   0.00    0.0
2023/06/08 17:30:28.000   33.219515279  -87.535924764    32.0614   5   4  14.5652  14.1788  49.6972 -10.8904  25.7184 -21.5894   0.00    0.0
2023/06/08 17:30:29.000   33.219497791  -87.535946854    32.1477   5   4  14.5609  14.1791  49.6897 -10.8860  25.7167 -21.5808   0.00    0.0
2023/06/08 17:30:30.000   33.219486364  -87.535960154    32.2699   5   4  14.5567  14.1795  49.6821 -10.8816  25.7149 -21.5723   0.00    0.0
2023/06/08 17:30:31.000   33.219491833  -87.535951724    32.2949   5   4  14.5525  14.1798  49.6745 -10.8772  25.7132 -21.5638   0.00    0.0
2023/06/08 17:30:32.000   33.219501635  -87.535938048    32.3200   5   4  14.5482  14.1802  49.6670 -10.8729  25.7114 -21.5553   0.00    0.0
2023/06/08 17:30:33.000   33.219449644  -87.535903671    39.4162   5   4  14.5440  14.1805  49.6594 -10.8685  25.7096 -21.5467   0.00    0.0
2023/06/08 17:30:35.000   33.219662521  -87.536008690    12.3620   5   4  14.5356  14.1813  49.6443 -10.8599  25.7062 -21.5299   0.00    0.0
2023/06/08 17:30:36.000   33.219598460  -87.535979045    20.4089   5   4  14.5314  14.1816  49.6368 -10.8555  25.7044 -21.5213   0.00    0.0
2023/06/08 17:30:37.000   33.219532109  -87.535948639    28.6309   5   4  14.5272  14.1820  49.6293 -10.8511  25.7027 -21.5128   0.00    0.0
2023/06/08 17:30:38.000   33.219503788  -87.535937984    31.9956   5   4  14.5230  14.1823  49.6218 -10.8467  25.7009 -21.5043   0.00    0.0
2023/06/08 17:30:39.000   33.219521817  -87.535920646    31.6918   5   4  14.5188  14.1827  49.6143 -10.8424  25.6992 -21.4958   0.00    0.0
2023/06/08 17:30:40.000   33.219618918  -87.535924637    22.4341   5   4  14.5146  14.1831  49.6067 -10.8381  25.6974 -21.4874   0.00    0.0
2023/06/08 17:30:41.000   33.219652405  -87.535943148    18.0524   5   4  14.5104  14.1834  49.5992 -10.8337  25.6957 -21.4790   0.00    0.0
2023/06/08 17:30:42.000   33.219627241  -87.535947931    20.0009   5   4  14.5063  14.1838  49.5917 -10.8294  25.6940 -21.4705   0.00    0.0
2023/06/08 17:30:43.000   33.219555640  -87.535919064    28.6088   5   4  14.5020  14.1842  49.5843 -10.8250  25.6923 -21.4620   0.00    0.0
2023/06/08 17:30:44.000   33.219501080  -87.535896905    35.1858   5   4  14.4978  14.1846  49.5768 -10.8206  25.6906 -21.4535   0.00    0.0
2023/06/08 17:30:45.000   33.219435549  -87.535900247    41.1006   5   4  14.4936  14.1850  49.5694 -10.8162  25.6889 -21.4450   0.00    0.0
2023/06/08 17:30:46.000   33.219393867  -87.535882976    46.1306   5   4  14.4895  14.1854  49.5620 -10.8119  25.6872 -21.4365   0.00    0.0
2023/06/08 17:30:47.000   33.219473392  -87.535892688    38.0266   5   4  14.4853  14.1858  49.5545 -10.8076  25.6855 -21.4281   0.00    0.0
2023/06/08 17:30:48.000   33.219547821  -87.535908546    29.9779   5   4  14.4812  14.1862  49.5470 -10.8033  25.6838 -21.4198   0.00    0.0
2023/06/08 17:30:49.000   33.219552775  -87.535912151    29.2832   5   4  14.4771  14.1866  49.5396 -10.7990  25.6822 -21.4114   0.00    0.0
2023/06/08 17:30:50.000   33.219527252  -87.535906142    32.1617   5   4  14.4729  14.1870  49.5322 -10.7946  25.6805 -21.4029   0.00    0.0
2023/06/08 17:30:51.000   33.219575961  -87.535908782    27.4909   5   4  14.4688  14.1874  49.5248 -10.7904  25.6788 -21.3946   0.00    0.0
2023/06/08 17:30:52.000   33.219545791  -87.535907716    30.4190   5   4  14.4646  14.1878  49.5174 -10.7860  25.6772 -21.3861   0.00    0.0
2023/06/08 17:30:53.000   33.219526948  -87.535906885    32.2227   5   4  14.4605  14.1882  49.5100 -10.7817  25.6755 -21.3777   0.00    0.0
2023/06/08 17:30:54.000   33.219562245  -87.535915534    28.2222   5   4  14.4564  14.1887  49.5026 -10.7774  25.6739 -21.3694   0.00    0.0
2023/06/08 17:32:19.000   33.219462301  -87.536036171    30.8768   5   4  14.1214  14.2355  48.9024 -10.4198  25.5505 -20.6776   0.00    0.0
2023/06/08 17:32:20.000   33.219536124  -87.535894260    33.3962   5   4  14.1176  14.2360  48.8955 -10.4156  25.5490 -20.6698   0.00    0.0
2023/06/08 17:32:21.000   33.219564488  -87.535846180    33.8641   5   4  14.1139  14.2367  48.8887 -10.4115  25.5477 -20.6619   0.00    0.0
2023/06/08 17:32:22.000   33.219530821  -87.535914978    32.4266   5   4  14.1101  14.2374  48.8820 -10.4074  25.5465 -20.6540   0.00    0.0
2023/06/08 17:32:23.000   33.219509466  -87.535924813    33.7540   5   4  14.1064  14.2381  48.8753 -10.4033  25.5453 -20.6461   0.00    0.0
2023/06/08 17:32:24.000   33.219495211  -87.535939241    34.0751   5   4  14.1026  14.2388  48.8686 -10.3992  25.5441 -20.6382   0.00    0.0
2023/06/08 17:32:25.000   33.219485253  -87.535947323    34.4148   5   4  14.0989  14.2395  48.8619 -10.3951  25.5428 -20.6304   0.00    0.0
2023/06/08 17:32:26.000   33.219492472  -87.535939302    34.2866   5   4  14.0952  14.2402  48.8552 -10.3910  25.5416 -20.6225   0.00    0.0
2023/06/08 17:32:28.000   33.219525706  -87.535924770    32.2432   5   4  14.0877  14.2416  48.8418 -10.3829  25.5391 -20.6068   0.00    0.0
2023/06/08 17:32:29.000   33.219514042  -87.535933450    32.7189   5   4  14.0840  14.2423  48.8351 -10.3788  25.5379 -20.5990   0.00    0.0
2023/06/08 17:32:30.000   33.219522892  -87.535915633    33.0847   5   4  14.0803  14.2430  48.8284 -10.3747  25.5367 -20.5912   0.00    0.0
2023/06/08 17:32:31.000   33.219532038  -87.535900240    33.3689   5   4  14.0766  14.2437  48.8217 -10.3706  25.5354 -20.5833   0.00    0.0
2023/06/08 17:32:32.000   33.219558127  -87.535863319    33.4955   5   4  14.0729  14.2443  48.8150 -10.3665  25.5342 -20.5755   0.00    0.0
2023/06/08 17:32:33.000   33.219502941  -87.535938148    33.6859   5   4  14.0691  14.2451  48.8084 -10.3625  25.5331 -20.5677   0.00    0.0
2023/06/08 17:32:34.000   33.219496633  -87.535946274    33.8511   5   4  14.0654  14.2459  48.8018 -10.3584  25.5319 -20.5598   0.00    0.0
2023/06/08 17:32:36.000   33.219518683  -87.535914594    34.0751   5   4  14.0580  14.2473  48.7885 -10.3503  25.5294 -20.5443   0.00    0.0
2023/06/08 17:32:37.000   33.219519752  -87.535910635    34.2304   5   4  14.0543  14.2480  48.7818 -10.3462  25.5283 -20.5365   0.00    0.0
2023/06/08 17:32:38.000   33.219514791  -87.535915786    34.2738   5   4  14.0507  14.2487  48.7752 -10.3421  25.5271 -20.5287   0.00    0.0
2023/06/08 17:32:39.000   33.219501914  -87.535932506    34.2975   5   4  14.0470  14.2495  48.7686 -10.3381  25.5259 -20.5209   0.00    0.0
2023/06/08 17:32:40.000   33.219498076  -87.535936525    34.2791   5   4  14.0433  14.2502  48.7620 -10.3340  25.5248 -20.5131   0.00    0.0
2023/06/08 17:32:41.000   33.219496829  -87.535936741    34.3071   5   4  14.0396  14.2510  48.7554 -10.3299  25.5236 -20.5053   0.00    0.0
2023/06/08 17:32:42.000   33.219492796  -87.535940031    34.4013   5   4  14.0359  14.2517  48.7488 -10.3259  25.5224 -20.4975   0.00    0.0
2023/06/08 17:38:07.000   33.219455919  -87.535946171    32.9335   5   4  13.0309  14.6305  46.9368  -9.1112  25.3478 -18.2358   0.00    0.0
2023/06/08 17:38:08.000   33.219489786  -87.535893422    33.0434   5   4  13.0283  14.6320  46.9321  -9.1077  25.3477 -18.2296   0.00    0.0
2023/06/08 17:38:09.000   33.219475405  -87.535917001    33.0633   5   4  13.0257  14.6335  46.9275  -9.1043  25.3478 -18.2233   0.00    0.0
2023/06/08 17:38:10.000   33.219447340  -87.535961790    33.0833   5   4  13.0231  14.6352  46.9228  -9.1008  25.3479 -18.2171   0.00    0.0
2023/06/08 17:38:11.000   33.219450834  -87.535954226    33.3324   5   4  13.0206  14.6367  46.9182  -9.0973  25.3479 -18.2109   0.00    0.0
2023/06/08 17:38:12.000   33.219466973  -87.535927879    33.5104   5   4  13.0180  14.6383  46.9135  -9.0939  25.3479 -18.2047   0.00    0.0
2023/06/08 17:38:13.000   33.219572889  -87.535757765    34.0350   5   4  13.0155  14.6396  46.9088  -9.0904  25.3478 -18.1986   0.00    0.0
2023/06/08 17:38:14.000   33.219608115  -87.535700364    34.3202   5   4  13.0129  14.6411  46.9041  -9.0870  25.3477 -18.1925   0.00    0.0
2023/06/08 17:38:15.000   33.219623568  -87.535673091    34.6837   5   4  13.0104  14.6427  46.8994  -9.0835  25.3477 -18.1863   0.00    0.0
2023/06/08 17:38:16.000   33.219631818  -87.535658208    34.8027   5   4  13.0078  14.6443  46.8948  -9.0801  25.3478 -18.1802   0.00    0.0
2023/06/08 17:38:17.000   33.219632090  -87.535658506    34.7278   5   4  13.0053  14.6458  46.8902  -9.0767  25.3478 -18.1740   0.00    0.0
2023/06/08 17:38:18.000   33.219636286  -87.535654548    34.5518   5   4  13.0027  14.6474  46.8856  -9.0732  25.3479 -18.1678   0.00    0.0
2023/06/08 17:38:19.000   33.219646123  -87.535639994    34.5040   5   4  13.0002  14.6490  46.8810  -9.0698  25.3479 -18.1617   0.00    0.0
2023/06/08 17:38:20.000   33.219656408  -87.535621616    34.6039   5   4  12.9976  14.6505  46.8764  -9.0663  25.3480 -18.1555   0.00    0.0
2023/06/08 17:38:21.000   33.219658695  -87.535617261    34.5999   5   4  12.9951  14.6521  46.8718  -9.0629  25.3481 -18.1493   0.00    0.0
2023/06/08 17:38:23.000   33.219681708  -87.535579164    34.8251   5   4  12.9900  14.6553  46.8626  -9.0560  25.3482 -18.1371   0.00    0.0
2023/06/08 17:41:41.000   33.219471983  -87.535817047    37.0997   5   4  12.5385  15.0136  46.0494  -8.4038  25.4222 -16.9981   0.00    0.0
2023/06/08 17:41:42.000   33.219472766  -87.535813713    37.1541   5   4  12.5364  15.0157  46.0457  -8.4006  25.4228 -16.9927   0.00    0.0
2023/06/08 17:41:43.000   33.219512749  -87.535776018    35.6774   5   4  12.5344  15.0176  46.0420  -8.3975  25.4234 -16.9874   0.00    0.0
2023/06/08 17:41:44.000   33.219472425  -87.535897429    32.5672   5   4  12.5324  15.0198  46.0385  -8.3943  25.4242 -16.9820   0.00    0.0
2023/06/08 17:41:45.000   33.219544454  -87.535794538    31.7801   5   4  12.5304  15.0217  46.0347  -8.3912  25.4247 -16.9767   0.00    0.0
2023/06/08 17:41:46.000   33.219565016  -87.535763332    31.6353   5   4  12.5283  15.0237  46.0311  -8.3880  25.4254 -16.9714   0.00    0.0
2023/06/08 17:45:01.000   33.219356779  -87.535911674    43.1549   5   4  12.1721  15.4552  45.3977  -7.7954  25.6027 -15.9965   0.00    0.0
2023/06/08 17:45:03.000   33.219518751  -87.535887582    30.2696   5   4  12.1688  15.4600  45.3918  -7.7897  25.6049 -15.9873   0.00    0.0
2023/06/08 17:45:04.000   33.219532816  -87.535891874    28.8627   5   4  12.1672  15.4624  45.3890  -7.7868  25.6061 -15.9827   0.00    0.0
2023/06/08 17:45:05.000   33.219504917  -87.535915529    30.1325   5   4  12.1656  15.4648  45.3861  -7.7839  25.6073 -15.9780   0.00    0.0
2023/06/08 17:45:10.000   33.219428982  -87.535984734    33.4459   5   4  12.1574  15.4769  45.3719  -7.7692  25.6132 -15.9548   0.00    0.0
2023/06/08 17:45:12.000   33.219424170  -87.535917851    37.3481   5   4  12.1542  15.4817  45.3662  -7.7634  25.6154 -15.9455   0.00    0.0
2023/06/08 17:45:13.000   33.219430645  -87.535906022    37.3979   5   4  12.1526  15.4841  45.3634  -7.7605  25.6166 -15.9409   0.00    0.0
2023/06/08 17:45:14.000   33.219406323  -87.535902029    39.8145   5   4  12.1510  15.4865  45.3606  -7.7575  25.6177 -15.9363   0.00    0.0
2023/06/08 17:45:15.000   33.219393237  -87.535906206    40.7544   5   4  12.1494  15.4889  45.3577  -7.7546  25.6189 -15.9316   0.00    0.0
2023/06/08 17:45:16.000   33.219409651  -87.535909934    39.1930   5   4  12.1478  15.4913  45.3549  -7.7517  25.6201 -15.9271   0.00    0.0
2023/06/08 17:45:17.000   33.219440783  -87.535889236    37.5605   5   4  12.1462  15.4937  45.3521  -7.7488  25.6213 -15.9225   0.00    0.0
2023/06/08 17:45:18.000   33.219434148  -87.535906872    37.2699   5   4  12.1446  15.4962  45.3493  -7.7459  25.6225 -15.9179   0.00    0.0
2023/06/08 17:45:19.000   33.219423497  -87.535935844    36.7102   5   4  12.1429  15.4986  45.3465  -7.7430  25.6237 -15.9133   0.00    0.0
2023/06/08 17:45:20.000   33.219422477  -87.535945165    36.4589   5   4  12.1413  15.5011  45.3437  -7.7401  25.6249 -15.9087   0.00    0.0
2023/06/08 17:45:21.000   33.219441472  -87.535912447    36.5397   5   4  12.1397  15.5035  45.3408  -7.7372  25.6260 -15.9041   0.00    0.0
2023/06/08 17:45:25.000   33.219428977  -87.535938558    36.5178   5   4  12.1334  15.5132  45.3297  -7.7256  25.6308 -15.8858   0.00    0.0
2023/06/08 17:45:26.000   33.219428707  -87.535941444    36.5021   5   4  12.1318  15.5157  45.3269  -7.7227  25.6320 -15.8812   0.00    0.0
2023/06/08 17:45:27.000   33.219419612  -87.535959438    36.5375   5   4  12.1302  15.5181  45.3241  -7.7198  25.6332 -15.8766   0.00    0.0
2023/06/08 17:45:28.000   33.219418030  -87.535961406    36.7250   5   4  12.1286  15.5206  45.3213  -7.7169  25.6344 -15.8720   0.00    0.0
2023/06/08 17:45:29.000   33.219437406  -87.535923483    37.0565   5   4  12.1270  15.5230  45.3185  -7.7140  25.6356 -15.8675   0.00    0.0
2023/06/08 17:45:30.000   33.219428123  -87.535940621    37.0184   5   4  12.1254  15.5254  45.3158  -7.7111  25.6368 -15.8629   0.00    0.0
2023/06/08 17:45:31.000   33.219421153  -87.535953849    36.9745   5   4  12.1238  15.5279  45.3130  -7.7083  25.6381 -15.8584   0.00    0.0
2023/06/08 17:45:32.000   33.219426183  -87.535943915    37.0157   5   4  12.1223  15.5303  45.3102  -7.7054  25.6393 -15.8538   0.00    0.0
2023/06/08 17:45:33.000   33.219421523  -87.535952164    37.0071   5   4  12.1207  15.5328  45.3075  -7.7025  25.6405 -15.8493   0.00    0.0
2023/06/08 17:45:34.000   33.219415051  -87.535964393    36.9132   5   4  12.1191  15.5353  45.3047  -7.6996  25.6417 -15.8447   0.00    0.0
2023/06/08 17:45:35.000   33.219429454  -87.535937600    36.9770   5   4  12.1175  15.5377  45.3020  -7.6967  25.6429 -15.8402   0.00    0.0
2023/06/08 17:45:36.000   33.219412707  -87.535971451    36.7114   5   4  12.1160  15.5402  45.2992  -7.6938  25.6442 -15.8356   0.00    0.0
2023/06/08 17:45:37.000   33.219423670  -87.535951341    36.6898   5   4  12.1144  15.5426  45.2965  -7.6909  25.6454 -15.8311   0.00    0.0
2023/06/08 17:45:38.000   33.219430811  -87.535939346    36.5535   5   4  12.1128  15.5451  45.2937  -7.6880  25.6466 -15.8266   0.00    0.0
2023/06/08 17:51:50.000   33.219330272  -87.536045730    39.5921   5   4  11.6378  16.5787  44.4996  -6.6921  26.2459 -14.3669   0.00    0.0
2023/06/08 17:51:51.000   33.219374544  -87.535948014    40.0323   5   4  11.6368  16.5817  44.4980  -6.6897  26.2477 -14.3636   0.00    0.0
2023/06/08 17:51:52.000   33.219368702  -87.535959897    39.8942   5   4  11.6358  16.5847  44.4964  -6.6872  26.2497 -14.3603   0.00    0.0
2023/06/08 17:51:53.000   33.219342062  -87.536020068    39.4212   5   4  11.6348  16.5879  44.4949  -6.6848  26.2517 -14.3569   0.00    0.0
2023/06/08 17:51:55.000   33.219414943  -87.535863495    39.9608   5   4  11.6327  16.5939  44.4917  -6.6799  26.2555 -14.3504   0.00    0.0
2023/06/08 17:51:56.000   33.219422901  -87.535845931    39.9956   5   4  11.6317  16.5970  44.4901  -6.6774  26.2575 -14.3471   0.00    0.0
2023/06/08 17:53:57.000   33.219445717  -87.535805376    36.5847   5   4  11.5181  16.9821  44.3212  -6.3890  26.5093 -13.9689   0.00    0.0
2023/06/08 17:53:58.000   33.219506763  -87.535663240    37.3295   5   4  11.5173  16.9853  44.3199  -6.3867  26.5113 -13.9660   0.00    0.0
2023/06/08 17:53:59.000   33.219525015  -87.535621148    37.5312   5   4  11.5164  16.9885  44.3186  -6.3844  26.5135 -13.9631   0.00    0.0
2023/06/08 17:54:00.000   33.219488602  -87.535705260    37.1113   5   4  11.5155  16.9919  44.3174  -6.3821  26.5158 -13.9601   0.00    0.0
2023/06/08 17:54:01.000   33.219472663  -87.535742524    36.9199   5   4  11.5147  16.9952  44.3162  -6.3798  26.5180 -13.9572   0.00    0.0
2023/06/08 17:54:02.000   33.219481407  -87.535722423    36.9947   5   4  11.5138  16.9984  44.3150  -6.3775  26.5202 -13.9543   0.00    0.0
2023/06/08 17:54:03.000   33.219495789  -87.535688727    37.2514   5   4  11.5129  17.0017  44.3137  -6.3752  26.5223 -13.9514   0.00    0.0
2023/06/08 17:54:04.000   33.219567362  -87.535522407    38.2273   5   4  11.5121  17.0048  44.3124  -6.3729  26.5243 -13.9486   0.00    0.0
2023/06/08 17:54:05.000   33.219629061  -87.535377326    39.1196   5   4  11.5112  17.0079  44.3111  -6.3707  26.5264 -13.9457   0.00    0.0
2023/06/08 17:54:06.000   33.219659962  -87.535303908    39.6170   5   4  11.5103  17.0111  44.3098  -6.3684  26.5285 -13.9429   0.00    0.0
2023/06/08 18:01:21.000   33.219320118  -87.536063987    37.0440   5   4  11.2281  18.5802  44.0072  -5.5153  27.6325 -12.9671   0.00    0.0
2023/06/08 18:01:22.000   33.219403935  -87.535832109    38.3923   5   4  11.2276  18.5838  44.0068  -5.5138  27.6351 -12.9657   0.00    0.0
2023/06/08 18:01:23.000   33.219441553  -87.535725556    39.1478   5   4  11.2272  18.5876  44.0066  -5.5123  27.6379 -12.9642   0.00    0.0
2023/06/08 18:01:24.000   33.219467180  -87.535652438    39.7252   5   4  11.2267  18.5914  44.0063  -5.5107  27.6406 -12.9626   0.00    0.0
2023/06/08 18:01:25.000   33.219426999  -87.535762031    39.2827   5   4  11.2263  18.5955  44.0062  -5.5091  27.6436 -12.9610   0.00    0.0
2023/06/08 18:04:07.000   33.219902968  -87.534319103    47.8971   5   4  11.2764  12.0934  43.6342  -8.3769  22.1590 -16.7740   0.00    0.0
2023/06/08 18:04:08.000   33.219901333  -87.534322964    47.9352   5   4  11.2751  12.0963  43.6344  -8.3777  22.1621 -16.7722   0.00    0.0
2023/06/08 18:04:09.000   33.219900067  -87.534325130    47.9851   5   4  11.2738  12.0991  43.6346  -8.3785  22.1652 -16.7705   0.00    0.0
2023/06/08 18:04:10.000   33.219879816  -87.534382801    47.8255   5   4  11.2725  12.1020  43.6348  -8.3793  22.1683 -16.7687   0.00    0.0
2023/06/08 18:04:11.000   33.219874395  -87.534397678    47.8058   5   4  11.2712  12.1049  43.6350  -8.3800  22.1714 -16.7670   0.00    0.0
2023/06/08 18:04:12.000   33.219875337  -87.534393923    47.8325   5   4  11.2699  12.1078  43.6352  -8.3808  22.1745 -16.7653   0.00    0.0
2023/06/08 18:04:13.000   33.219875517  -87.534392566    47.8409   5   4  11.2686  12.1106  43.6354  -8.3816  22.1776 -16.7635   0.00    0.0
2023/06/08 18:04:14.000   33.219877695  -87.534384863    47.9380   5   4  11.2673  12.1135  43.6355  -8.3824  22.1806 -16.7618   0.00    0.0
2023/06/08 18:04:15.000   33.219880372  -87.534376271    47.9285   5   4  11.2661  12.1163  43.6357  -8.3832  22.1837 -16.7601   0.00    0.0
2023/06/08 18:04:16.000   33.219885368  -87.534361359    47.8704   5   4  11.2648  12.1192  43.6359  -8.3840  22.1868 -16.7584   0.00    0.0
2023/06/08 18:04:17.000   33.219886847  -87.534356840    47.7531   5   4  11.2635  12.1220  43.6361  -8.3847  22.1898 -16.7567   0.00    0.0
2023/06/08 18:04:18.000   33.219887267  -87.534356368    47.5856   5   4  11.2622  12.1249  43.6363  -8.3855  22.1929 -16.7549   0.00    0.0
2023/06/08 18:04:19.000   33.219890845  -87.534345950    47.5256   5   4  11.2610  12.1277  43.6365  -8.3863  22.1960 -16.7532   0.00    0.0
2023/06/08 18:04:20.000   33.219899772  -87.534319416    47.5886   5   4  11.2597  12.1306  43.6366  -8.3871  22.1990 -16.7515   0.00    0.0
2023/06/08 18:04:21.000   33.219910312  -87.534288354    47.6765   5   4  11.2585  12.1334  43.6368  -8.3879  22.2020 -16.7498   0.00    0.0
2023/06/08 18:04:22.000   33.219916304  -87.534270641    47.6821   5   4  11.2572  12.1362  43.6370  -8.3887  22.2051 -16.7482   0.00    0.0
2023/06/08 18:04:23.000   33.219922143  -87.534253874    47.6963   5   4  11.2559  12.1391  43.6372  -8.3894  22.2081 -16.7465   0.00    0.0
2023/06/08 18:04:24.000   33.219924463  -87.534245840    47.7434   5   4  11.2547  12.1419  43.6374  -8.3902  22.2112 -16.7448   0.00    0.0
2023/06/08 18:04:25.000   33.219922689  -87.534250179    47.7085   5   4  11.2534  12.1448  43.6376  -8.3910  22.2143 -16.7431   0.00    0.0
2023/06/08 18:04:26.000   33.219918333  -87.534262645    47.6574   5   4  11.2522  12.1476  43.6378  -8.3918  22.2174 -16.7414   0.00    0.0
2023/06/08 18:04:27.000   33.219914662  -87.534272823    47.6228   5   4  11.2509  12.1505  43.6380  -8.3926  22.2205 -16.7397   0.00    0.0
2023/06/08 18:04:28.000   33.219911828  -87.534280370    47.6286   5   4  11.2497  12.1534  43.6382  -8.3934  22.2235 -16.7380   0.00    0.0
2023/06/08 18:04:29.000   33.219909216  -87.534287416    47.6129   5   4  11.2484  12.1562  43.6385  -8.3942  22.2266 -16.7364   0.00    0.0
2023/06/08 18:04:30.000   33.219905013  -87.534298274    47.6031   5   4  11.2472  12.1591  43.6387  -8.3950  22.2297 -16.7347   0.00    0.0
2023/06/08 18:04:31.000   33.219902582  -87.534304079    47.6115   5   4  11.2459  12.1620  43.6389  -8.3958  22.2328 -16.7330   0.00    0.0
2023/06/08 18:04:32.000   33.219902480  -87.534303156    47.6183   5   4  11.2447  12.1648  43.6391  -8.3966  22.2358 -16.7313   0.00    0.0
2023/06/08 18:04:33.000   33.219903020  -87.534300763    47.6045   5   4  11.2434  12.1677  43.6393  -8.3974  22.2389 -16.7297   0.00    0.0
2023/06/08 18:04:34.000   33.219902532  -87.534300637    47.6191   5   4  11.2422  12.1705  43.6396  -8.3982  22.2420 -16.7280   0.00    0.0
2023/06/08 18:04:35.000   33.219902226  -87.534299892    47.6439   5   4  11.2410  12.1734  43.6398  -8.3990  22.2451 -16.7264   0.00    0.0
2023/06/08 18:04:36.000   33.219902325  -87.534298896    47.6071   5   4  11.2397  12.1762  43.6400  -8.3998  22.2481 -16.7247   0.00    0.0
2023/06/08 18:04:37.000   33.219902258  -87.534298157    47.5587   5   4  11.2385  12.1791  43.6403  -8.4006  22.2512 -16.7231   0.00    0.0
2023/06/08 18:04:38.000   33.219902203  -87.534297571    47.5562   5   4  11.2373  12.1819  43.6405  -8.4014  22.2543 -16.7214   0.00    0.0
2023/06/08 18:04:39.000   33.219902219  -87.534296967    47.5648   5   4  11.2360  12.1848  43.6407  -8.4022  22.2573 -16.7198   0.00    0.0
2023/06/08 18:04:40.000   33.219902320  -87.534296190    47.5986   5   4  11.2348  12.1876  43.6409  -8.4030  22.2604 -16.7181   0.00    0.0
2023/06/08 18:04:41.000   33.219902057  -87.534295859    47.6194   5   4  11.2336  12.1905  43.6412  -8.4038  22.2635 -16.7165   0.00    0.0
2023/06/08 18:04:42.000   33.219901983  -87.534295699    47.5500   5   4  11.2324  12.1933  43.6414  -8.4046  22.2665 -16.7149   0.00    0.0
2023/06/08 18:04:43.000   33.219901771  -87.534295530    47.4964   5   4  11.2311  12.1962  43.6417  -8.4054  22.2696 -16.7132   0.00    0.0
2023/06/08 18:04:44.000   33.219901340  -87.534295180    47.4846   5   4  11.2299  12.1990  43.6419  -8.4062  22.2727 -16.7116   0.00    0.0
2023/06/08 18:04:45.000   33.219901233  -87.534294760    47.4911   5   4  11.2287  12.2019  43.6422  -8.4070  22.2757 -16.7100   0.00    0.0
2023/06/08 18:04:46.000   33.219901210  -87.534294725    47.5022   5   4  11.2275  12.2048  43.6424  -8.4078  22.2788 -16.7084   0.00    0.0
2023/06/08 18:04:47.000   33.219901030  -87.534293883    47.5229   5   4  11.2263  12.2076  43.6426  -8.4086  22.2818 -16.7068   0.00    0.0
2023/06/08 18:04:48.000   33.219901325  -87.534293932    47.4237   5   4  11.2251  12.2105  43.6429  -8.4095  22.2849 -16.7051   0.00    0.0
2023/06/08 18:04:49.000   33.219901252  -87.534294127    47.3641   5   4  11.2239  12.2133  43.6432  -8.4103  22.2880 -16.7035   0.00    0.0
2023/06/08 18:04:50.000   33.219901242  -87.534293498    47.3299   5   4  11.2227  12.2162  43.6434  -8.4111  22.2910 -16.7019   0.00    0.0
2023/06/08 18:06:34.000   33.219481896  -87.535534216    41.3967   5   4  11.1081  12.5130  43.6814  -8.4998  22.6098 -16.5520   0.00    0.0
2023/06/08 18:06:35.000   33.219539529  -87.535355322    42.2014   5   4  11.1071  12.5157  43.6817  -8.5007  22.6126 -16.5508   0.00    0.0
2023/06/08 18:06:36.000   33.219574069  -87.535248512    42.6400   5   4  11.1061  12.5184  43.6821  -8.5015  22.6155 -16.5496   0.00    0.0
2023/06/08 18:06:37.000   33.219571185  -87.535257193    42.6305   5   4  11.1051  12.5213  43.6825  -8.5024  22.6186 -16.5483   0.00    0.0
2023/06/08 18:06:38.000   33.219572828  -87.535252487    42.6262   5   4  11.1041  12.5241  43.6830  -8.5033  22.6216 -16.5470   0.00    0.0
2023/06/08 18:06:39.000   33.219578722  -87.535233470    42.7208   5   4  11.1031  12.5269  43.6835  -8.5042  22.6246 -16.5458   0.00    0.0
2023/06/08 18:06:40.000   33.219592147  -87.535192429    42.8789   5   4  11.1021  12.5297  43.6839  -8.5051  22.6276 -16.5445   0.00    0.0
2023/06/08 18:06:41.000   33.219600688  -87.535163839    43.0884   5   4  11.1011  12.5325  43.6843  -8.5060  22.6306 -16.5433   0.00    0.0
2023/06/08 18:06:42.000   33.219608041  -87.535139218    43.2947   5   4  11.1001  12.5353  43.6848  -8.5069  22.6336 -16.5421   0.00    0.0
2023/06/08 18:06:43.000   33.219619616  -87.535101215    43.5526   5   4  11.0992  12.5381  43.6852  -8.5078  22.6366 -16.5408   0.00    0.0
2023/06/08 18:06:44.000   33.219663749  -87.534962301    44.2586   5   4  11.0982  12.5408  43.6856  -8.5086  22.6395 -16.5396   0.00    0.0
2023/06/08 18:06:45.000   33.219650751  -87.535002722    44.0959   5   4  11.0972  12.5437  43.6861  -8.5096  22.6426 -16.5384   0.00    0.0
2023/06/08 18:06:46.000   33.219676668  -87.534919633    44.7009   5   4  11.0962  12.5465  43.6865  -8.5104  22.6455 -16.5371   0.00    0.0
2023/06/08 18:06:47.000   33.219704481  -87.534831986    45.2081   5   4  11.0952  12.5492  43.6870  -8.5113  22.6485 -16.5359   0.00    0.0
2023/06/08 18:06:48.000   33.219721755  -87.534777703    45.4464   5   4  11.0943  12.5520  43.6874  -8.5122  22.6514 -16.5347   0.00    0.0
2023/06/08 18:06:49.000   33.219734440  -87.534738029    45.6343   5   4  11.0933  12.5548  43.6878  -8.5131  22.6544 -16.5335   0.00    0.0
2023/06/08 18:06:50.000   33.219745399  -87.534704102    45.7729   5   4  11.0923  12.5576  43.6883  -8.5140  22.6574 -16.5323   0.00    0.0
2023/06/08 18:06:51.000   33.219754608  -87.534675389    45.8794   5   4  11.0914  12.5604  43.6888  -8.5149  22.6604 -16.5311   0.00    0.0
2023/06/08 18:06:52.000   33.219748577  -87.534694465    45.6588   5   4  11.0904  12.5632  43.6893  -8.5158  22.6635 -16.5298   0.00    0.0
2023/06/08 18:06:53.000   33.219751655  -87.534684176    45.7239   5   4  11.0894  12.5661  43.6898  -8.5167  22.6665 -16.5286   0.00    0.0
2023/06/08 18:06:54.000   33.219765295  -87.534640532    45.9541   5   4  11.0885  12.5688  43.6902  -8.5176  22.6695 -16.5274   0.00    0.0
2023/06/08 18:06:55.000   33.219774217  -87.534611768    46.1051   5   4  11.0875  12.5716  43.6907  -8.5185  22.6725 -16.5262   0.00    0.0
2023/06/08 18:06:56.000   33.219764160  -87.534641564    46.0532   5   4  11.0865  12.5745  43.6912  -8.5194  22.6756 -16.5250   0.00    0.0
2023/06/08 18:06:57.000   33.219760822  -87.534650759    46.0462   5   4  11.0856  12.5773  43.6917  -8.5203  22.6786 -16.5238   0.00    0.0
2023/06/08 18:06:58.000   33.219768083  -87.534627823    46.0295   5   4  11.0846  12.5802  43.6922  -8.5212  22.6816 -16.5226   0.00    0.0
2023/06/08 18:06:59.000   33.219779871  -87.534591454    46.0796   5   4  11.0837  12.5830  43.6927  -8.5222  22.6846 -16.5214   0.00    0.0
2023/06/08 18:07:00.000   33.219788333  -87.534565991    46.0679   5   4  11.0827  12.5858  43.6932  -8.5231  22.6876 -16.5202   0.00    0.0
2023/06/08 18:07:01.000   33.219788181  -87.534567486    45.9539   5   4  11.0818  12.5886  43.6937  -8.5240  22.6906 -16.5190   0.00    0.0
2023/06/08 18:07:02.000   33.219788077  -87.534567021    45.9797   5   4  11.0808  12.5914  43.6942  -8.5249  22.6937 -16.5179   0.00    0.0
2023/06/08 18:07:03.000   33.219788188  -87.534565359    45.9928   5   4  11.0799  12.5943  43.6947  -8.5258  22.6967 -16.5167   0.00    0.0
2023/06/08 18:07:04.000   33.219787962  -87.534564035    46.0766   5   4  11.0789  12.5971  43.6952  -8.5267  22.6997 -16.5155   0.00    0.0
2023/06/08 18:07:05.000   33.219787823  -87.534562074    46.1662   5   4  11.0780  12.5999  43.6957  -8.5276  22.7028 -16.5143   0.00    0.0
2023/06/08 18:07:06.000   33.219787890  -87.534559897    46.2371   5   4  11.0770  12.6027  43.6962  -8.5285  22.7058 -16.5131   0.00    0.0
2023/06/08 18:07:07.000   33.219788167  -87.534556654    46.3525   5   4  11.0761  12.6056  43.6967  -8.5295  22.7088 -16.5120   0.00    0.0
2023/06/08 18:07:08.000   33.219788876  -87.534553408    46.3689   5   4  11.0752  12.6084  43.6973  -8.5304  22.7119 -16.5108   0.00    0.0
2023/06/08 18:07:09.000   33.219789670  -87.534549477    46.3605   5   4  11.0742  12.6112  43.6978  -8.5313  22.7149 -16.5096   0.00    0.0
2023/06/08 18:07:10.000   33.219790386  -87.534545734    46.3110   5   4  11.0733  12.6140  43.6983  -8.5322  22.7179 -16.5085   0.00    0.0
2023/06/08 18:07:11.000   33.219790990  -87.534542251    46.2351   5   4  11.0724  12.6169  43.6988  -8.5331  22.7209 -16.5073   0.00    0.0
2023/06/08 18:07:12.000   33.219792308  -87.534538489    46.1006   5   4  11.0714  12.6197  43.6993  -8.5341  22.7240 -16.5061   0.00    0.0
2023/06/08 18:07:13.000   33.219793074  -87.534534533    46.0572   5   4  11.0705  12.6225  43.6999  -8.5350  22.7270 -16.5050   0.00    0.0
2023/06/08 18:07:14.000   33.219794323  -87.534530327    46.0073   5   4  11.0696  12.6254  43.7004  -8.5359  22.7300 -16.5038   0.00    0.0
2023/06/08 18:07:15.000   33.219795026  -87.534526230    46.0895   5   4  11.0687  12.6282  43.7009  -8.5368  22.7331 -16.5027   0.00    0.0
2023/06/08 18:07:16.000   33.219795133  -87.534522165    46.2277   5   4  11.0677  12.6310  43.7015  -8.5378  22.7361 -16.5016   0.00    0.0
2023/06/08 18:07:17.000   33.219796349  -87.534518374    46.2186   5   4  11.0668  12.6338  43.7020  -8.5387  22.7391 -16.5004   0.00    0.0
2023/06/08 18:07:18.000   33.219797325  -87.534514779    46.1556   5   4  11.0659  12.6367  43.7025  -8.5396  22.7421 -16.4993   0.00    0.0
2023/06/08 18:07:19.000   33.219797945  -87.534510983    46.0976   5   4  11.0650  12.6395  43.7031  -8.5405  22.7452 -16.4981   0.00    0.0
2023/06/08 18:07:20.000   33.219798935  -87.534507677    45.9529   5   4  11.0641  12.6423  43.7036  -8.5415  22.7482 -16.4970   0.00    0.0
2023/06/08 18:07:21.000   33.219800044  -87.534504583    45.8444   5   4  11.0631  12.6451  43.7041  -8.5424  22.7512 -16.4959   0.00    0.0
2023/06/08 18:07:22.000   33.219800783  -87.534501767    45.7143   5   4  11.0622  12.6480  43.7047  -8.5433  22.7542 -16.4948   0.00    0.0
2023/06/08 18:07:23.000   33.219801869  -87.534499091    45.5911   5   4  11.0613  12.6508  43.7052  -8.5443  22.7573 -16.4936   0.00    0.0
2023/06/08 18:07:24.000   33.219802480  -87.534496581    45.5324   5   4  11.0604  12.6536  43.7058  -8.5452  22.7603 -16.4925   0.00    0.0
2023/06/08 18:07:25.000   33.219802647  -87.534495068    45.4194   5   4  11.0595  12.6564  43.7063  -8.5461  22.7633 -16.4914   0.00    0.0
2023/06/08 18:07:26.000   33.219802727  -87.534493248    45.4943   5   4  11.0586  12.6593  43.7069  -8.5471  22.7664 -16.4903   0.00    0.0
2023/06/08 18:07:27.000   33.219802860  -87.534491058    45.6447   5   4  11.0577  12.6621  43.7074  -8.5480  22.7694 -16.4892   0.00    0.0
2023/06/08 18:07:28.000   33.219803242  -87.534488757    45.8309   5   4  11.0568  12.6649  43.7080  -8.5489  22.7724 -16.4881   0.00    0.0
2023/06/08 18:07:29.000   33.219803633  -87.534486566    45.9789   5   4  11.0559  12.6677  43.7085  -8.5499  22.7754 -16.4870   0.00    0.0
2023/06/08 18:07:30.000   33.219804327  -87.534484297    46.0898   5   4  11.0550  12.6706  43.7091  -8.5508  22.7785 -16.4859   0.00    0.0
2023/06/08 18:07:31.000   33.219804512  -87.534481886    46.2120   5   4  11.0541  12.6734  43.7097  -8.5517  22.7815 -16.4848   0.00    0.0
2023/06/08 18:07:32.000   33.219805055  -87.534479868    46.1977   5   4  11.0532  12.6762  43.7102  -8.5527  22.7845 -16.4837   0.00    0.0
2023/06/08 18:07:33.000   33.219805404  -87.534477821    46.1787   5   4  11.0523  12.6790  43.7108  -8.5536  22.7875 -16.4826   0.00    0.0
2023/06/08 18:07:34.000   33.219805674  -87.534476068    46.0016   5   4  11.0514  12.6819  43.7113  -8.5546  22.7906 -16.4815   0.00    0.0
2023/06/08 18:07:35.000   33.219806058  -87.534473720    45.8591   5   4  11.0505  12.6847  43.7119  -8.5555  22.7936 -16.4804   0.00    0.0
2023/06/08 18:07:36.000   33.219806368  -87.534471253    45.7481   5   4  11.0497  12.6875  43.7125  -8.5564  22.7966 -16.4793   0.00    0.0
2023/06/08 18:07:37.000   33.219807158  -87.534468010    45.6957   5   4  11.0488  12.6903  43.7131  -8.5574  22.7996 -16.4782   0.00    0.0
2023/06/08 18:07:38.000   33.219807722  -87.534465247    45.6408   5   4  11.0479  12.6932  43.7136  -8.5583  22.8027 -16.4772   0.00    0.0
2023/06/08 18:07:39.000   33.219808607  -87.534462584    45.5710   5   4  11.0470  12.6960  43.7142  -8.5593  22.8057 -16.4761   0.00    0.0
2023/06/08 18:07:40.000   33.219809642  -87.534459556    45.6015   5   4  11.0461  12.6988  43.7148  -8.5602  22.8087 -16.4750   0.00    0.0
2023/06/08 18:07:41.000   33.219810417  -87.534456540    45.6273   5   4  11.0452  12.7016  43.7154  -8.5612  22.8118 -16.4739   0.00    0.0
2023/06/08 18:07:42.000   33.219810974  -87.534453803    45.6380   5   4  11.0444  12.7045  43.7159  -8.5621  22.8148 -16.4729   0.00    0.0
2023/06/08 18:07:43.000   33.219811857  -87.534451264    45.5844   5   4  11.0435  12.7073  43.7165  -8.5631  22.8178 -16.4718   0.00    0.0
2023/06/08 18:07:44.000   33.219812657  -87.534449127    45.5447   5   4  11.0426  12.7101  43.7171  -8.5640  22.8208 -16.4708   0.00    0.0
2023/06/08 18:07:45.000   33.219813004  -87.534446965    45.6053   5   4  11.0418  12.7129  43.7177  -8.5649  22.8239 -16.4697   0.00    0.0
2023/06/08 18:07:46.000   33.219813554  -87.534444670    45.6807   5   4  11.0409  12.7158  43.7183  -8.5659  22.8269 -16.4687   0.00    0.0
2023/06/08 18:07:47.000   33.219814166  -87.534442044    45.7797   5   4  11.0400  12.7186  43.7189  -8.5668  22.8299 -16.4676   0.00    0.0
2023/06/08 18:07:48.000   33.219814933  -87.534439191    45.8926   5   4  11.0392  12.7214  43.7195  -8.5678  22.8329 -16.4666   0.00    0.0
2023/06/08 18:07:49.000   33.219815628  -87.534436555    45.9955   5   4  11.0383  12.7242  43.7200  -8.5688  22.8359 -16.4655   0.00    0.0
2023/06/08 18:07:50.000   33.219816327  -87.534433941    46.0309   5   4  11.0374  12.7270  43.7206  -8.5697  22.8390 -16.4645   0.00    0.0
2023/06/08 18:07:51.000   33.219817007  -87.534430765    46.1775   5   4  11.0366  12.7299  43.7212  -8.5707  22.8420 -16.4634   0.00    0.0
2023/06/08 18:07:52.000   33.219817715  -87.534426951    46.3660   5   4  11.0357  12.7327  43.7218  -8.5716  22.8450 -16.4624   0.00    0.0
2023/06/08 18:07:53.000   33.219818198  -87.534423145    46.5225   5   4  11.0349  12.7355  43.7224  -8.5726  22.8480 -16.4614   0.00    0.0
2023/06/08 18:07:54.000   33.219818901  -87.534419754    46.5915   5   4  11.0340  12.7383  43.7230  -8.5735  22.8511 -16.4603   0.00    0.0
2023/06/08 18:07:55.000   33.219819809  -87.534415708    46.7004   5   4  11.0332  12.7412  43.7236  -8.5745  22.8541 -16.4593   0.00    0.0
2023/06/08 18:07:56.000   33.219820111  -87.534412589    46.7587   5   4  11.0323  12.7440  43.7242  -8.5754  22.8571 -16.4583   0.00    0.0
2023/06/08 18:07:57.000   33.219820382  -87.534409999    46.7774   5   4  11.0315  12.7468  43.7249  -8.5764  22.8601 -16.4573   0.00    0.0
2023/06/08 18:07:58.000   33.219820871  -87.534407564    46.7338   5   4  11.0306  12.7496  43.7255  -8.5774  22.8632 -16.4563   0.00    0.0
2023/06/08 18:07:59.000   33.219820733  -87.534404707    46.8430   5   4  11.0298  12.7524  43.7261  -8.5783  22.8662 -16.4553   0.00    0.0
2023/06/08 18:08:00.000   33.219821268  -87.534402183    46.9044   5   4  11.0289  12.7553  43.7267  -8.5793  22.8692 -16.4542   0.00    0.0
2023/06/08 18:08:01.000   33.219821479  -87.534399862    47.0036   5   4  11.0281  12.7581  43.7273  -8.5803  22.8722 -16.4532   0.00    0.0
2023/06/08 18:08:02.000   33.219821883  -87.534397627    47.0694   5   4  11.0272  12.7609  43.7279  -8.5812  22.8752 -16.4522   0.00    0.0
2023/06/08 18:08:03.000   33.219822332  -87.534395023    47.1255   5   4  11.0264  12.7637  43.7285  -8.5822  22.8783 -16.4512   0.00    0.0
2023/06/08 18:08:04.000   33.219823069  -87.534392376    47.1625   5   4  11.0256  12.7666  43.7292  -8.5831  22.8813 -16.4502   0.00    0.0
2023/06/08 18:08:05.000   33.219824101  -87.534389581    47.1259   5   4  11.0247  12.7694  43.7298  -8.5841  22.8843 -16.4492   0.00    0.0
2023/06/08 18:08:06.000   33.219825428  -87.534386841    47.0349   5   4  11.0239  12.7722  43.7304  -8.5851  22.8873 -16.4482   0.00    0.0
2023/06/08 18:08:07.000   33.219826669  -87.534383942    47.0237   5   4  11.0231  12.7750  43.7310  -8.5860  22.8904 -16.4473   0.00    0.0
2023/06/08 18:08:08.000   33.219827946  -87.534381377    46.9627   5   4  11.0222  12.7778  43.7317  -8.5870  22.8934 -16.4463   0.00    0.0
2023/06/08 18:08:09.000   33.219828653  -87.534378532    47.0032   5   4  11.0214  12.7807  43.7323  -8.5880  22.8964 -16.4453   0.00    0.0
2023/06/08 18:08:10.000   33.219829167  -87.534375360    47.1646   5   4  11.0206  12.7835  43.7329  -8.5890  22.8994 -16.4443   0.00    0.0
2023/06/08 18:09:43.000   33.219500841  -87.535393459    42.9468   5   4  10.9515  13.0467  43.8005  -8.6833  23.1815 -16.3659   0.00    0.0
2023/06/08 18:09:44.000   33.219540607  -87.535258592    43.5367   5   4  10.9508  13.0494  43.8012  -8.6843  23.1844 -16.3652   0.00    0.0
2023/06/08 18:09:45.000   33.219583742  -87.535112003    44.0930   5   4  10.9502  13.0521  43.8019  -8.6853  23.1872 -16.3646   0.00    0.0
2023/06/08 18:09:46.000   33.219618908  -87.534992388    44.4858   5   4  10.9495  13.0547  43.8026  -8.6863  23.1901 -16.3639   0.00    0.0
2023/06/08 18:09:47.000   33.219644622  -87.534905526    44.7445   5   4  10.9489  13.0575  43.8034  -8.6874  23.1930 -16.3632   0.00    0.0
2023/06/08 18:09:48.000   33.219640027  -87.534922134    44.5269   5   4  10.9482  13.0603  43.8042  -8.6884  23.1961 -16.3625   0.00    0.0
2023/06/08 18:09:49.000   33.219634303  -87.534941933    44.3708   5   4  10.9475  13.0631  43.8050  -8.6895  23.1991 -16.3618   0.00    0.0
2023/06/08 18:09:50.000   33.219639036  -87.534926213    44.3893   5   4  10.9469  13.0659  43.8058  -8.6906  23.2021 -16.3612   0.00    0.0
2023/06/08 18:09:51.000   33.219645183  -87.534905768    44.4072   5   4  10.9462  13.0687  43.8066  -8.6916  23.2051 -16.3605   0.00    0.0
2023/06/08 18:09:52.000   33.219686820  -87.534765302    44.9068   5   4  10.9456  13.0714  43.8074  -8.6926  23.2079 -16.3598   0.00    0.0
2023/06/08 18:09:53.000   33.219700523  -87.534718406    45.1011   5   4  10.9450  13.0742  43.8081  -8.6937  23.2109 -16.3592   0.00    0.0
2023/06/08 18:09:54.000   33.219706230  -87.534698785    45.2089   5   4  10.9443  13.0770  43.8090  -8.6948  23.2139 -16.3585   0.00    0.0
2023/06/08 18:09:55.000   33.219709787  -87.534684698    45.3522   5   4  10.9437  13.0798  43.8098  -8.6958  23.2169 -16.3578   0.00    0.0
2023/06/08 18:09:56.000   33.219713443  -87.534671101    45.5331   5   4  10.9430  13.0826  43.8106  -8.6969  23.2199 -16.3572   0.00    0.0
2023/06/08 18:09:57.000   33.219715687  -87.534661745    45.6725   5   4  10.9424  13.0854  43.8114  -8.6979  23.2229 -16.3565   0.00    0.0
2023/06/08 18:09:58.000   33.219718338  -87.534650964    45.8061   5   4  10.9418  13.0882  43.8122  -8.6990  23.2259 -16.3558   0.00    0.0
2023/06/08 18:09:59.000   33.219720299  -87.534643288    45.8819   5   4  10.9411  13.0910  43.8130  -8.7001  23.2289 -16.3552   0.00    0.0
2023/06/08 18:10:00.000   33.219721834  -87.534639314    45.8758   5   4  10.9405  13.0938  43.8139  -8.7011  23.2319 -16.3545   0.00    0.0
2023/06/08 18:10:01.000   33.219721553  -87.534638760    45.9188   5   4  10.9398  13.0966  43.8147  -8.7022  23.2349 -16.3539   0.00    0.0
2023/06/08 18:10:02.000   33.219721526  -87.534639437    45.8696   5   4  10.9392  13.0994  43.8155  -8.7033  23.2380 -16.3532   0.00    0.0
2023/06/08 18:10:03.000   33.219721274  -87.534641577    45.8747   5   4  10.9386  13.1023  43.8164  -8.7043  23.2410 -16.3526   0.00    0.0
2023/06/08 18:10:04.000   33.219719763  -87.534647584    45.8800   5   4  10.9380  13.1051  43.8172  -8.7054  23.2440 -16.3519   0.00    0.0
2023/06/08 18:10:05.000   33.219718231  -87.534652607    45.9032   5   4  10.9373  13.1079  43.8181  -8.7065  23.2470 -16.3513   0.00    0.0
2023/06/08 18:10:06.000   33.219717464  -87.534655184    45.9176   5   4  10.9367  13.1107  43.8189  -8.7076  23.2500 -16.3507   0.00    0.0
2023/06/08 18:10:07.000   33.219717324  -87.534655411    45.9129   5   4  10.9361  13.1135  43.8198  -8.7086  23.2531 -16.3500   0.00    0.0
2023/06/08 18:10:08.000   33.219717293  -87.534654820    45.9050   5   4  10.9355  13.1163  43.8206  -8.7097  23.2561 -16.3494   0.00    0.0
2023/06/08 18:10:09.000   33.219717441  -87.534653958    45.9277   5   4  10.9348  13.1192  43.8215  -8.7108  23.2591 -16.3488   0.00    0.0
2023/06/08 18:10:10.000   33.219717508  -87.534653247    45.9892   5   4  10.9342  13.1220  43.8223  -8.7119  23.2621 -16.3481   0.00    0.0
2023/06/08 18:10:11.000   33.219716867  -87.534653314    46.0661   5   4  10.9336  13.1248  43.8232  -8.7129  23.2651 -16.3475   0.00    0.0
2023/06/08 18:10:12.000   33.219716295  -87.534653632    46.1432   5   4  10.9330  13.1276  43.8240  -8.7140  23.2681 -16.3469   0.00    0.0
2023/06/08 18:10:13.000   33.219716056  -87.534654156    46.1955   5   4  10.9324  13.1304  43.8249  -8.7151  23.2712 -16.3463   0.00    0.0
2023/06/08 18:10:14.000   33.219715796  -87.534655135    46.1997   5   4  10.9318  13.1332  43.8257  -8.7162  23.2742 -16.3457   0.00    0.0
2023/06/08 18:10:15.000   33.219715363  -87.534656671    46.1503   5   4  10.9312  13.1360  43.8266  -8.7173  23.2772 -16.3450   0.00    0.0
2023/06/08 18:10:16.000   33.219714654  -87.534658286    46.1949   5   4  10.9305  13.1389  43.8274  -8.7183  23.2802 -16.3444   0.00    0.0
2023/06/08 18:10:17.000   33.219712825  -87.534662658    46.2624   5   4  10.9299  13.1417  43.8283  -8.7194  23.2832 -16.3438   0.00    0.0
2023/06/08 18:10:18.000   33.219711112  -87.534666142    46.2925   5   4  10.9293  13.1445  43.8292  -8.7205  23.2863 -16.3432   0.00    0.0
2023/06/08 18:10:19.000   33.219709573  -87.534668737    46.2916   5   4  10.9287  13.1473  43.8300  -8.7216  23.2893 -16.3426   0.00    0.0
2023/06/08 18:10:20.000   33.219708242  -87.534671419    46.3100   5   4  10.9281  13.1501  43.8309  -8.7227  23.2923 -16.3420   0.00    0.0
2023/06/08 18:12:51.000   33.219490440  -87.536558588  -420.6119   5   4  10.8080  18.2358  72.5801 -12.8431  35.6602 -25.0436   0.00    0.0
2023/06/08 18:12:52.000   33.219513448  -87.536654152  -492.0172   5   4  10.8078  18.2494  72.6209 -12.8474  35.6845 -25.0493   0.00    0.0
2023/06/08 18:12:53.000   33.219534579  -87.536741192  -557.1840   5   4  10.8076  18.2629  72.6616 -12.8517  35.7088 -25.0551   0.00    0.0
2023/06/08 18:12:54.000   33.219549410  -87.536802041  -602.4115   5   4  10.8075  18.2765  72.7025 -12.8561  35.7331 -25.0609   0.00    0.0
2023/06/08 18:12:55.000   33.219531618  -87.536731971  -548.4142   5   4  10.8072  18.2898  72.7432 -12.8603  35.7572 -25.0665   0.00    0.0
2023/06/08 18:12:56.000   33.219550329  -87.536808975  -606.1374   5   4  10.8071  18.3034  72.7843 -12.8647  35.7817 -25.0723   0.00    0.0
2023/06/08 18:12:57.000   33.219568044  -87.536882424  -660.7131   5   4  10.8069  18.3171  72.8254 -12.8690  35.8061 -25.0781   0.00    0.0
2023/06/08 18:12:58.000   33.219574890  -87.536911882  -682.3808   5   4  10.8067  18.3307  72.8665 -12.8734  35.8305 -25.0839   0.00    0.0
2023/06/08 18:12:59.000   33.219579425  -87.536932856  -697.2099   5   4  10.8065  18.3443  72.9078 -12.8777  35.8550 -25.0898   0.00    0.0
2023/06/08 18:13:00.000   33.219583283  -87.536951877  -710.4624   5   4  10.8064  18.3579  72.9491 -12.8820  35.8795 -25.0956   0.00    0.0
2023/06/08 18:13:01.000   33.219589137  -87.536979080  -730.0908   5   4  10.8062  18.3715  72.9905 -12.8864  35.9041 -25.1014   0.00    0.0
2023/06/08 18:13:02.000   33.219595394  -87.537007813  -750.8862   5   4  10.8060  18.3852  73.0320 -12.8908  35.9287 -25.1073   0.00    0.0
2023/06/08 18:13:03.000   33.219604478  -87.537048649  -780.4162   5   4  10.8059  18.3989  73.0736 -12.8952  35.9534 -25.1132   0.00    0.0
2023/06/08 18:13:04.000   33.219615685  -87.537097883  -816.4796   5   4  10.8057  18.4127  73.1153 -12.8995  35.9781 -25.1191   0.00    0.0
2023/06/08 18:13:05.000   33.219627563  -87.537149689  -854.4383   5   4  10.8055  18.4265  73.1571 -12.9039  36.0029 -25.1250   0.00    0.0
2023/06/08 18:13:06.000   33.219640807  -87.537205917  -895.4972   5   4  10.8054  18.4403  73.1990 -12.9084  36.0277 -25.1310   0.00    0.0
2023/06/08 18:13:07.000   33.219654018  -87.537263777  -937.8488   5   4  10.8052  18.4542  73.2409 -12.9128  36.0526 -25.1369   0.00    0.0
2023/06/08 18:13:08.000   33.219653555  -87.537266087  -938.2937   5   4  10.8051  18.4680  73.2829 -12.9172  36.0775 -25.1429   0.00    0.0
2023/06/08 18:13:09.000   33.219649349  -87.537252518  -926.9138   5   4  10.8049  18.4817  73.3250 -12.9216  36.1023 -25.1488   0.00    0.0
2023/06/08 18:13:10.000   33.219652270  -87.537269232  -938.0093   5   4  10.8048  18.4956  73.3672 -12.9260  36.1273 -25.1548   0.00    0.0
2023/06/08 18:13:11.000   33.219685234  -87.537383611 -1007.5386   5   4   5.5114   9.6128  37.8791  -6.7505  18.6590 -12.9934   0.00    0.0
2023/06/08 18:13:12.000   33.219702455  -87.537459389 -1062.8554   5   4   5.5110   9.6196  37.9002  -6.7523  18.6714 -12.9957   0.00    0.0
2023/06/08 18:13:13.000   33.219701051  -87.537456315 -1059.9222   5   4   5.5105   9.6264  37.9213  -6.7541  18.6838 -12.9979   0.00    0.0
2023/06/08 18:13:14.000   33.219704514  -87.537476400 -1073.5082   5   4   5.5100   9.6332  37.9424  -6.7559  18.6962 -13.0001   0.00    0.0
2023/06/08 18:13:15.000   33.219710881  -87.537507858 -1095.8009   5   4   5.5096   9.6400  37.9636  -6.7577  18.7086 -13.0024   0.00    0.0
2023/06/08 18:13:16.000   33.219716813  -87.537538987 -1117.2429   5   4   5.5091   9.6468  37.9848  -6.7595  18.7211 -13.0046   0.00    0.0
2023/06/08 18:13:17.000   33.219722241  -87.537568949 -1137.8185   5   4   5.5086   9.6536  38.0061  -6.7613  18.7336 -13.0069   0.00    0.0
2023/06/08 18:13:18.000   33.219725449  -87.537589630 -1151.6942   5   4   5.5082   9.6605  38.0275  -6.7631  18.7461 -13.0092   0.00    0.0
2023/06/08 18:13:19.000   33.219728111  -87.537606673 -1162.6796   5   4   5.5077   9.6673  38.0488  -6.7649  18.7586 -13.0114   0.00    0.0
2023/06/08 18:13:20.000   33.219729191  -87.537616863 -1168.3907   5   4   5.5072   9.6741  38.0702  -6.7668  18.7711 -13.0137   0.00    0.0
2023/06/08 18:13:21.000   33.219729690  -87.537622396 -1171.1601   5   4   5.5068   9.6810  38.0917  -6.7686  18.7837 -13.0160   0.00    0.0
2023/06/08 18:13:22.000   33.219731387  -87.537476250 -1114.5133   5   4   5.5063   9.6878  38.1131  -6.7704  18.7961 -13.0183   0.00    0.0
2023/06/08 18:13:23.000   33.219732049  -87.537451142 -1105.1667   5   4   5.5059   9.6946  38.1346  -6.7722  18.8087 -13.0206   0.00    0.0
2023/06/08 18:14:26.000   33.219749319  -87.538011104 -1346.5398   5   4   5.4798  10.1562  39.5948  -6.8954  19.6564 -13.1834   0.00    0.0
2023/06/08 18:14:27.000   33.219749185  -87.537946474 -1321.4847   5   4   5.4795  10.1640  39.6197  -6.8975  19.6707 -13.1863   0.00    0.0
2023/06/08 18:14:28.000   33.219748957  -87.537930202 -1315.0135   5   4   5.4791  10.1718  39.6446  -6.8995  19.6850 -13.1892   0.00    0.0
2023/06/08 18:14:29.000   33.219749009  -87.537910181 -1306.9729   5   4   5.4788  10.1796  39.6696  -6.9016  19.6994 -13.1921   0.00    0.0
2023/06/08 18:14:30.000   33.219748797  -87.537990902 -1337.6137   5   4   5.4784  10.1875  39.6947  -6.9038  19.7139 -13.1950   0.00    0.0
2023/06/08 18:14:39.000   33.219745588  -87.538074380 -1363.7661   5   4   5.4752  10.2588  39.9230  -6.9229  19.8452 -13.2216   0.00    0.0
2023/06/08 18:14:40.000   33.219744380  -87.538084230 -1366.8588   5   4   5.4749  10.2668  39.9487  -6.9251  19.8600 -13.2246   0.00    0.0
2023/06/08 18:14:41.000   33.219743707  -87.538153104 -1393.0243   5   4   5.4745  10.2749  39.9744  -6.9272  19.8748 -13.2277   0.00    0.0
2023/06/08 18:14:42.000   33.219742513  -87.538312347 -1453.8223   5   4   5.4742  10.2830  40.0003  -6.9294  19.8898 -13.2307   0.00    0.0
2023/06/08 18:14:43.000   33.219743071  -87.538344892 -1466.4330   5   4   5.4738  10.2911  40.0262  -6.9316  19.9047 -13.2337   0.00    0.0
